{
"type": "FeatureCollection",
"name": "hotosm_tgo_health_facilities_points_geojson",
"features": [
{ "type": "Feature", "properties": { "name": "Hôpital Notre Dame d'Ayome", "name:en": null, "amenity": "hospital", "building": null, "healthcare": null, "healthcare:speciality": null, "operator:type": null, "capacity:persons": null, "addr:full": null, "addr:city": null, "source": null, "name:fr": null, "osm_id": 9297575830, "osm_type": "nodes" }, "geometry": { "type": "Point", "coordinates": [ 0.9598245, 7.4935609 ] } },
{ "type": "Feature", "properties": { "name": "CENTRE MÉDICO SOCIAL LA GLOIRE", "name:en": null, "amenity": "clinic", "building": null, "healthcare": null, "healthcare:speciality": null, "operator:type": null, "capacity:persons": null, "addr:full": null, "addr:city": null, "source": null, "name:fr": "CENTRE MÉDICO SOCIAL LA GLOIRE", "osm_id": 5026196122, "osm_type": "nodes" }, "geometry": { "type": "Point", "coordinates": [ 1.2339797, 6.2113151 ] } },
{ "type": "Feature", "properties": { "name": "CMS ADJENGRÉ", "name:en": null, "amenity": "hospital", "building": null, "healthcare": null, "healthcare:speciality": null, "operator:type": null, "capacity:persons": null, "addr:full": null, "addr:city": null, "source": null, "name:fr": null, "osm_id": 9275288719, "osm_type": "nodes" }, "geometry": { "type": "Point", "coordinates": [ 1.0048328, 8.6669098 ] } },
{ "type": "Feature", "properties": { "name": "Hôpital de KOUSSOUNTOU", "name:en": null, "amenity": "hospital", "building": null, "healthcare": null, "healthcare:speciality": null, "operator:type": null, "capacity:persons": null, "addr:full": null, "addr:city": null, "source": null, "name:fr": null, "osm_id": 9275291318, "osm_type": "nodes" }, "geometry": { "type": "Point", "coordinates": [ 1.5191008, 8.8290512 ] } },
{ "type": "Feature", "properties": { "name": "Unité de Soins Périphériques", "name:en": null, "amenity": "hospital", "building": null, "healthcare": null, "healthcare:speciality": null, "operator:type": null, "capacity:persons": null, "addr:full": null, "addr:city": null, "source": null, "name:fr": null, "osm_id": 9270106320, "osm_type": "nodes" }, "geometry": { "type": "Point", "coordinates": [ 1.0722857, 8.8461539 ] } },
{ "type": "Feature", "properties": { "name": null, "name:en": null, "amenity": "pharmacy", "building": null, "healthcare": "pharmacy", "healthcare:speciality": null, "operator:type": null, "capacity:persons": null, "addr:full": null, "addr:city": null, "source": "Bing;survey", "name:fr": null, "osm_id": 2407205577, "osm_type": "nodes" }, "geometry": { "type": "Point", "coordinates": [ 0.6768623, 7.0106438 ] } },
{ "type": "Feature", "properties": { "name": "Laboratoire d'Analyses Médicales", "name:en": null, "amenity": "hospital", "building": null, "healthcare": "hospital", "healthcare:speciality": null, "operator:type": "ngo", "capacity:persons": null, "addr:full": null, "addr:city": null, "source": "Bing;survey", "name:fr": null, "osm_id": 2407209028, "osm_type": "nodes" }, "geometry": { "type": "Point", "coordinates": [ 0.6769506, 7.0109047 ] } },
{ "type": "Feature", "properties": { "name": "Pharmacie de Cinkansé", "name:en": null, "amenity": "pharmacy", "building": null, "healthcare": null, "healthcare:speciality": null, "operator:type": null, "capacity:persons": null, "addr:full": null, "addr:city": null, "source": "survey", "name:fr": null, "osm_id": 6975968265, "osm_type": "nodes" }, "geometry": { "type": "Point", "coordinates": [ -0.001212, 11.1190053 ] } },
{ "type": "Feature", "properties": { "name": "Hôpital de Kouma-Apéyémé", "name:en": null, "amenity": "hospital", "building": null, "healthcare": "hospital", "healthcare:speciality": null, "operator:type": null, "capacity:persons": null, "addr:full": null, "addr:city": null, "source": null, "name:fr": null, "osm_id": 9275917829, "osm_type": "nodes" }, "geometry": { "type": "Point", "coordinates": [ 0.5579504, 6.9771526 ] } },
{ "type": "Feature", "properties": { "name": "CMS KAZABOUA", "name:en": null, "amenity": "hospital", "building": null, "healthcare": null, "healthcare:speciality": null, "operator:type": null, "capacity:persons": null, "addr:full": null, "addr:city": null, "source": null, "name:fr": null, "osm_id": 9263461431, "osm_type": "nodes" }, "geometry": { "type": "Point", "coordinates": [ 1.070786, 8.428305 ] } },
{ "type": "Feature", "properties": { "name": "Pharmacie Chinoise", "name:en": null, "amenity": "pharmacy", "building": null, "healthcare": null, "healthcare:speciality": null, "operator:type": null, "capacity:persons": null, "addr:full": null, "addr:city": null, "source": "Bing and survey", "name:fr": null, "osm_id": 2619670522, "osm_type": "nodes" }, "geometry": { "type": "Point", "coordinates": [ 1.2349348, 6.181645 ] } },
{ "type": "Feature", "properties": { "name": "Dépôt de Pharmacie", "name:en": null, "amenity": "pharmacy", "building": null, "healthcare": null, "healthcare:speciality": null, "operator:type": null, "capacity:persons": null, "addr:full": null, "addr:city": null, "source": null, "name:fr": null, "osm_id": 9263197018, "osm_type": "nodes" }, "geometry": { "type": "Point", "coordinates": [ 1.134875, 8.2288769 ] } },
{ "type": "Feature", "properties": { "name": "CMS AGBANDI", "name:en": null, "amenity": "doctors", "building": null, "healthcare": null, "healthcare:speciality": null, "operator:type": null, "capacity:persons": null, "addr:full": null, "addr:city": null, "source": null, "name:fr": null, "osm_id": 9263197124, "osm_type": "nodes" }, "geometry": { "type": "Point", "coordinates": [ 1.1353177, 8.228705 ] } },
{ "type": "Feature", "properties": { "name": "Cabinet prothèse dentaire", "name:en": null, "amenity": "dentist", "building": null, "healthcare": null, "healthcare:speciality": null, "operator:type": null, "capacity:persons": null, "addr:full": null, "addr:city": null, "source": null, "name:fr": null, "osm_id": 4088778962, "osm_type": "nodes" }, "geometry": { "type": "Point", "coordinates": [ 1.5232659, 6.3414824 ] } },
{ "type": "Feature", "properties": { "name": "Dispensaire saint Savin de wli centre", "name:en": null, "amenity": "hospital", "building": null, "healthcare": null, "healthcare:speciality": null, "operator:type": null, "capacity:persons": null, "addr:full": null, "addr:city": null, "source": null, "name:fr": null, "osm_id": 8872015408, "osm_type": "nodes" }, "geometry": { "type": "Point", "coordinates": [ 1.1628368, 6.4091974 ] } },
{ "type": "Feature", "properties": { "name": null, "name:en": null, "amenity": "pharmacy", "building": null, "healthcare": null, "healthcare:speciality": null, "operator:type": null, "capacity:persons": null, "addr:full": null, "addr:city": null, "source": null, "name:fr": null, "osm_id": 4088806781, "osm_type": "nodes" }, "geometry": { "type": "Point", "coordinates": [ 1.5258972, 6.337569 ] } },
{ "type": "Feature", "properties": { "name": "USP", "name:en": null, "amenity": "hospital", "building": null, "healthcare": null, "healthcare:speciality": null, "operator:type": null, "capacity:persons": null, "addr:full": null, "addr:city": null, "source": null, "name:fr": null, "osm_id": 8855277028, "osm_type": "nodes" }, "geometry": { "type": "Point", "coordinates": [ 1.4582098, 6.3362084 ] } },
{ "type": "Feature", "properties": { "name": "Dispensaire Kpétou", "name:en": null, "amenity": "hospital", "building": null, "healthcare": "nurse", "healthcare:speciality": null, "operator:type": null, "capacity:persons": null, "addr:full": null, "addr:city": null, "source": null, "name:fr": null, "osm_id": 7626808830, "osm_type": "nodes" }, "geometry": { "type": "Point", "coordinates": [ 1.5773267, 6.522333 ] } },
{ "type": "Feature", "properties": { "name": "Hôpital Saint Jean d'Afagnan", "name:en": null, "amenity": "hospital", "building": null, "healthcare": null, "healthcare:speciality": null, "operator:type": null, "capacity:persons": null, "addr:full": null, "addr:city": null, "source": null, "name:fr": null, "osm_id": 7626233517, "osm_type": "nodes" }, "geometry": { "type": "Point", "coordinates": [ 1.6323173, 6.4941248 ] } },
{ "type": "Feature", "properties": { "name": "Polyclinique de Vogan", "name:en": null, "amenity": "hospital", "building": null, "healthcare": "clinic", "healthcare:speciality": null, "operator:type": null, "capacity:persons": null, "addr:full": null, "addr:city": null, "source": null, "name:fr": null, "osm_id": 7625773650, "osm_type": "nodes" }, "geometry": { "type": "Point", "coordinates": [ 1.5307192, 6.3333026 ] } },
{ "type": "Feature", "properties": { "name": "Dispensaire de Zooti", "name:en": null, "amenity": "hospital", "building": null, "healthcare": "nurse", "healthcare:speciality": null, "operator:type": null, "capacity:persons": null, "addr:full": null, "addr:city": null, "source": null, "name:fr": null, "osm_id": 7626112121, "osm_type": "nodes" }, "geometry": { "type": "Point", "coordinates": [ 1.6071716, 6.416634 ] } },
{ "type": "Feature", "properties": { "name": "Dispensaire d'Assankondji", "name:en": null, "amenity": "hospital", "building": null, "healthcare": "nurse", "healthcare:speciality": null, "operator:type": null, "capacity:persons": null, "addr:full": null, "addr:city": null, "source": null, "name:fr": null, "osm_id": 7626112122, "osm_type": "nodes" }, "geometry": { "type": "Point", "coordinates": [ 1.6004661, 6.3839044 ] } },
{ "type": "Feature", "properties": { "name": "Dispensaire de Djéta", "name:en": null, "amenity": "hospital", "building": null, "healthcare": "nurse", "healthcare:speciality": null, "operator:type": null, "capacity:persons": null, "addr:full": null, "addr:city": null, "source": null, "name:fr": null, "osm_id": 7625773626, "osm_type": "nodes" }, "geometry": { "type": "Point", "coordinates": [ 1.7341474, 6.2692505 ] } },
{ "type": "Feature", "properties": { "name": "Dispensaire d'Agouègan", "name:en": null, "amenity": "hospital", "building": null, "healthcare": "nurse", "healthcare:speciality": null, "operator:type": null, "capacity:persons": null, "addr:full": null, "addr:city": null, "source": null, "name:fr": null, "osm_id": 7625894607, "osm_type": "nodes" }, "geometry": { "type": "Point", "coordinates": [ 1.680935, 6.2620198 ] } },
{ "type": "Feature", "properties": { "name": "Dispensaire de Séko", "name:en": null, "amenity": "hospital", "building": null, "healthcare": "nurse", "healthcare:speciality": null, "operator:type": null, "capacity:persons": null, "addr:full": null, "addr:city": null, "source": null, "name:fr": null, "osm_id": 7625894608, "osm_type": "nodes" }, "geometry": { "type": "Point", "coordinates": [ 1.7104956, 6.2634222 ] } },
{ "type": "Feature", "properties": { "name": "Dispensaire d'Atoèta", "name:en": null, "amenity": "hospital", "building": null, "healthcare": "nurse", "healthcare:speciality": null, "operator:type": null, "capacity:persons": null, "addr:full": null, "addr:city": null, "source": null, "name:fr": null, "osm_id": 7625773629, "osm_type": "nodes" }, "geometry": { "type": "Point", "coordinates": [ 1.6683662, 6.3042135 ] } },
{ "type": "Feature", "properties": { "name": null, "name:en": null, "amenity": "pharmacy", "building": null, "healthcare": null, "healthcare:speciality": null, "operator:type": null, "capacity:persons": null, "addr:full": null, "addr:city": null, "source": null, "name:fr": null, "osm_id": 4598747489, "osm_type": "nodes" }, "geometry": { "type": "Point", "coordinates": [ 0.6340086, 6.907009 ] } },
{ "type": "Feature", "properties": { "name": "CLIDEM", "name:en": null, "amenity": "clinic", "building": null, "healthcare": null, "healthcare:speciality": null, "operator:type": null, "capacity:persons": null, "addr:full": null, "addr:city": null, "source": null, "name:fr": null, "osm_id": 5948803586, "osm_type": "nodes" }, "geometry": { "type": "Point", "coordinates": [ 0.6297418, 6.9051292 ] } },
{ "type": "Feature", "properties": { "name": "Clinique Celidem", "name:en": null, "amenity": "hospital", "building": null, "healthcare": null, "healthcare:speciality": null, "operator:type": null, "capacity:persons": null, "addr:full": null, "addr:city": null, "source": null, "name:fr": null, "osm_id": 7081976008, "osm_type": "nodes" }, "geometry": { "type": "Point", "coordinates": [ 0.6300838, 6.9038718 ] } },
{ "type": "Feature", "properties": { "name": "CMS Mont Des Oliviers", "name:en": null, "amenity": "hospital", "building": null, "healthcare": null, "healthcare:speciality": null, "operator:type": null, "capacity:persons": null, "addr:full": null, "addr:city": null, "source": null, "name:fr": null, "osm_id": 10023579262, "osm_type": "nodes" }, "geometry": { "type": "Point", "coordinates": [ 1.504527, 6.5944102 ] } },
{ "type": "Feature", "properties": { "name": "Gladjoé - MMC", "name:en": null, "amenity": "clinic", "building": null, "healthcare": null, "healthcare:speciality": null, "operator:type": null, "capacity:persons": null, "addr:full": null, "addr:city": null, "source": null, "name:fr": null, "osm_id": 9603708117, "osm_type": "nodes" }, "geometry": { "type": "Point", "coordinates": [ 1.6229129, 6.5644865 ] } },
{ "type": "Feature", "properties": { "name": "Centre Médico-Social d'agomé Glozou", "name:en": null, "amenity": "hospital", "building": null, "healthcare": "nurse", "healthcare:speciality": null, "operator:type": null, "capacity:persons": null, "addr:full": null, "addr:city": null, "source": null, "name:fr": null, "osm_id": 7626252685, "osm_type": "nodes" }, "geometry": { "type": "Point", "coordinates": [ 1.6652924, 6.5585043 ] } },
{ "type": "Feature", "properties": { "name": "Gladjoé", "name:en": null, "amenity": "clinic", "building": null, "healthcare": null, "healthcare:speciality": null, "operator:type": null, "capacity:persons": null, "addr:full": null, "addr:city": null, "source": null, "name:fr": null, "osm_id": 9603708217, "osm_type": "nodes" }, "geometry": { "type": "Point", "coordinates": [ 1.6228908, 6.5659591 ] } },
{ "type": "Feature", "properties": { "name": "Pharmacie du Zio", "name:en": null, "amenity": "pharmacy", "building": null, "healthcare": null, "healthcare:speciality": null, "operator:type": null, "capacity:persons": null, "addr:full": null, "addr:city": null, "source": null, "name:fr": null, "osm_id": 4211076251, "osm_type": "nodes" }, "geometry": { "type": "Point", "coordinates": [ 1.2129391, 6.4286104 ] } },
{ "type": "Feature", "properties": { "name": "Unité de Soins Périphérique de Logowomé", "name:en": null, "amenity": "hospital", "building": null, "healthcare": "nurse", "healthcare:speciality": null, "operator:type": null, "capacity:persons": null, "addr:full": null, "addr:city": null, "source": null, "name:fr": null, "osm_id": 7626808916, "osm_type": "nodes" }, "geometry": { "type": "Point", "coordinates": [ 1.6632056, 6.4755281 ] } },
{ "type": "Feature", "properties": { "name": "Dispensaire de Dzrekpo", "name:en": null, "amenity": "hospital", "building": null, "healthcare": "nurse", "healthcare:speciality": null, "operator:type": null, "capacity:persons": null, "addr:full": null, "addr:city": null, "source": null, "name:fr": null, "osm_id": 7626112086, "osm_type": "nodes" }, "geometry": { "type": "Point", "coordinates": [ 1.5693699, 6.4708441 ] } },
{ "type": "Feature", "properties": { "name": "Centre de santé d'Atahonou", "name:en": null, "amenity": "hospital", "building": null, "healthcare": "nurse", "healthcare:speciality": null, "operator:type": null, "capacity:persons": null, "addr:full": null, "addr:city": null, "source": null, "name:fr": null, "osm_id": 7626334873, "osm_type": "nodes" }, "geometry": { "type": "Point", "coordinates": [ 1.4972413, 6.4228443 ] } },
{ "type": "Feature", "properties": { "name": "Centre Médico-Social d'Akoumapé", "name:en": null, "amenity": "hospital", "building": "yes", "healthcare": "nurse", "healthcare:speciality": null, "operator:type": null, "capacity:persons": null, "addr:full": null, "addr:city": null, "source": null, "name:fr": null, "osm_id": 7626334871, "osm_type": "nodes" }, "geometry": { "type": "Point", "coordinates": [ 1.4366341, 6.3830408 ] } },
{ "type": "Feature", "properties": { "name": "Dépot Pharmaceutique OCAM Vogan", "name:en": null, "amenity": "pharmacy", "building": null, "healthcare": null, "healthcare:speciality": null, "operator:type": null, "capacity:persons": null, "addr:full": null, "addr:city": null, "source": null, "name:fr": null, "osm_id": 4088793238, "osm_type": "nodes" }, "geometry": { "type": "Point", "coordinates": [ 1.5286228, 6.3337413 ] } },
{ "type": "Feature", "properties": { "name": "Centre Médical Social de Glidji", "name:en": null, "amenity": "hospital", "building": null, "healthcare": "nurse", "healthcare:speciality": null, "operator:type": null, "capacity:persons": null, "addr:full": null, "addr:city": null, "source": null, "name:fr": null, "osm_id": 7625773639, "osm_type": "nodes" }, "geometry": { "type": "Point", "coordinates": [ 1.600745, 6.2495738 ] } },
{ "type": "Feature", "properties": { "name": "Centre Médical de Pedakondji", "name:en": null, "amenity": "hospital", "building": null, "healthcare": null, "healthcare:speciality": null, "operator:type": null, "capacity:persons": null, "addr:full": null, "addr:city": null, "source": null, "name:fr": null, "osm_id": 9654130904, "osm_type": "nodes" }, "geometry": { "type": "Point", "coordinates": [ 1.5348491, 6.3184064 ] } },
{ "type": "Feature", "properties": { "name": "Unité de Soins Périphérique de Vo koutimé", "name:en": null, "amenity": "hospital", "building": null, "healthcare": "nurse", "healthcare:speciality": null, "operator:type": null, "capacity:persons": null, "addr:full": null, "addr:city": null, "source": null, "name:fr": null, "osm_id": 7625773631, "osm_type": "nodes" }, "geometry": { "type": "Point", "coordinates": [ 1.6129357, 6.3267219 ] } },
{ "type": "Feature", "properties": { "name": null, "name:en": null, "amenity": "hospital", "building": null, "healthcare": null, "healthcare:speciality": null, "operator:type": null, "capacity:persons": null, "addr:full": null, "addr:city": null, "source": null, "name:fr": null, "osm_id": 9053482643, "osm_type": "nodes" }, "geometry": { "type": "Point", "coordinates": [ 0.7794124, 6.8905918 ] } },
{ "type": "Feature", "properties": { "name": "CMS d'Amakpapé", "name:en": null, "amenity": "clinic", "building": null, "healthcare": "clinic", "healthcare:speciality": null, "operator:type": null, "capacity:persons": null, "addr:full": null, "addr:city": null, "source": null, "name:fr": null, "osm_id": 9121256205, "osm_type": "nodes" }, "geometry": { "type": "Point", "coordinates": [ 1.1787405, 6.7761863 ] } },
{ "type": "Feature", "properties": { "name": "CHR Amlamé", "name:en": null, "amenity": "hospital", "building": null, "healthcare": null, "healthcare:speciality": null, "operator:type": null, "capacity:persons": null, "addr:full": null, "addr:city": null, "source": null, "name:fr": null, "osm_id": 9297544491, "osm_type": "nodes" }, "geometry": { "type": "Point", "coordinates": [ 0.9102512, 7.4731472 ] } },
{ "type": "Feature", "properties": { "name": "CMS AKARALE", "name:en": null, "amenity": "hospital", "building": null, "healthcare": null, "healthcare:speciality": null, "operator:type": null, "capacity:persons": null, "addr:full": null, "addr:city": null, "source": "WNA Hb - Mia Tou Togo project", "name:fr": null, "osm_id": 10830716944, "osm_type": "nodes" }, "geometry": { "type": "Point", "coordinates": [ 1.1198382, 7.5308035 ] } },
{ "type": "Feature", "properties": { "name": "Hôpital de l'amitié", "name:en": null, "amenity": "hospital", "building": null, "healthcare": null, "healthcare:speciality": null, "operator:type": null, "capacity:persons": null, "addr:full": null, "addr:city": null, "source": null, "name:fr": null, "osm_id": 8375147533, "osm_type": "nodes" }, "geometry": { "type": "Point", "coordinates": [ 1.0472175, 8.6425363 ] } },
{ "type": "Feature", "properties": { "name": null, "name:en": null, "amenity": "pharmacy", "building": null, "healthcare": null, "healthcare:speciality": null, "operator:type": null, "capacity:persons": null, "addr:full": null, "addr:city": null, "source": null, "name:fr": null, "osm_id": 8854644925, "osm_type": "nodes" }, "geometry": { "type": "Point", "coordinates": [ 1.0086454, 8.3436767 ] } },
{ "type": "Feature", "properties": { "name": "Dispensaire", "name:en": null, "amenity": "hospital", "building": null, "healthcare": null, "healthcare:speciality": null, "operator:type": null, "capacity:persons": null, "addr:full": null, "addr:city": null, "source": null, "name:fr": null, "osm_id": 8854640115, "osm_type": "nodes" }, "geometry": { "type": "Point", "coordinates": [ 1.0125849, 8.3473934 ] } },
{ "type": "Feature", "properties": { "name": "USP Larini", "name:en": null, "amenity": "hospital", "building": null, "healthcare": "hospital", "healthcare:speciality": null, "operator:type": null, "capacity:persons": null, "addr:full": null, "addr:city": null, "source": null, "name:fr": null, "osm_id": 8823716804, "osm_type": "nodes" }, "geometry": { "type": "Point", "coordinates": [ 1.4145327, 9.0332711 ] } },
{ "type": "Feature", "properties": { "name": "USP Kpindi (formation sanitaire)", "name:en": null, "amenity": "clinic", "building": null, "healthcare": null, "healthcare:speciality": null, "operator:type": null, "capacity:persons": null, "addr:full": null, "addr:city": null, "source": null, "name:fr": null, "osm_id": 8671416019, "osm_type": "nodes" }, "geometry": { "type": "Point", "coordinates": [ 1.3466063, 9.4717565 ] } },
{ "type": "Feature", "properties": { "name": "USP Soumdina bas", "name:en": null, "amenity": "pharmacy", "building": null, "healthcare": null, "healthcare:speciality": null, "operator:type": null, "capacity:persons": null, "addr:full": null, "addr:city": null, "source": null, "name:fr": null, "osm_id": 8365529093, "osm_type": "nodes" }, "geometry": { "type": "Point", "coordinates": [ 1.2561147, 9.6450706 ] } },
{ "type": "Feature", "properties": { "name": "USP KPINZINDE", "name:en": null, "amenity": "hospital", "building": null, "healthcare": null, "healthcare:speciality": null, "operator:type": null, "capacity:persons": null, "addr:full": null, "addr:city": null, "source": null, "name:fr": null, "osm_id": 9126086020, "osm_type": "nodes" }, "geometry": { "type": "Point", "coordinates": [ 1.2927378, 9.4945823 ] } },
{ "type": "Feature", "properties": { "name": "Dispensaire Ashifa de Sirka", "name:en": null, "amenity": "pharmacy", "building": null, "healthcare": null, "healthcare:speciality": null, "operator:type": null, "capacity:persons": null, "addr:full": null, "addr:city": null, "source": null, "name:fr": null, "osm_id": 8356812501, "osm_type": "nodes" }, "geometry": { "type": "Point", "coordinates": [ 1.324735, 9.5639266 ] } },
{ "type": "Feature", "properties": { "name": "USP", "name:en": null, "amenity": "hospital", "building": null, "healthcare": "hospital", "healthcare:speciality": null, "operator:type": null, "capacity:persons": null, "addr:full": null, "addr:city": null, "source": null, "name:fr": null, "osm_id": 8919847656, "osm_type": "nodes" }, "geometry": { "type": "Point", "coordinates": [ 1.1681718, 9.5463294 ] } },
{ "type": "Feature", "properties": { "name": "ISSA Touré", "name:en": null, "amenity": "pharmacy", "building": null, "healthcare": "pharmacy", "healthcare:speciality": null, "operator:type": null, "capacity:persons": null, "addr:full": null, "addr:city": null, "source": null, "name:fr": null, "osm_id": 4183084111, "osm_type": "nodes" }, "geometry": { "type": "Point", "coordinates": [ 1.1407194, 8.9821271 ] } },
{ "type": "Feature", "properties": { "name": "CAMEG PRA Sokode", "name:en": null, "amenity": "pharmacy", "building": null, "healthcare": "pharmacy", "healthcare:speciality": null, "operator:type": null, "capacity:persons": null, "addr:full": null, "addr:city": null, "source": null, "name:fr": null, "osm_id": 6544212585, "osm_type": "nodes" }, "geometry": { "type": "Point", "coordinates": [ 1.1381896, 8.9848022 ] } },
{ "type": "Feature", "properties": { "name": "CMS KOMAH", "name:en": null, "amenity": "clinic", "building": null, "healthcare": null, "healthcare:speciality": null, "operator:type": null, "capacity:persons": null, "addr:full": null, "addr:city": null, "source": null, "name:fr": null, "osm_id": 7070717351, "osm_type": "nodes" }, "geometry": { "type": "Point", "coordinates": [ 1.1458018, 8.9733121 ] } },
{ "type": "Feature", "properties": { "name": "Clinique du Parc", "name:en": null, "amenity": "clinic", "building": null, "healthcare": "clinic", "healthcare:speciality": null, "operator:type": null, "capacity:persons": null, "addr:full": null, "addr:city": null, "source": null, "name:fr": null, "osm_id": 4222482789, "osm_type": "nodes" }, "geometry": { "type": "Point", "coordinates": [ 1.1370273, 8.9731799 ] } },
{ "type": "Feature", "properties": { "name": "USP Yaloumbe", "name:en": null, "amenity": "hospital", "building": null, "healthcare": null, "healthcare:speciality": null, "operator:type": null, "capacity:persons": null, "addr:full": null, "addr:city": null, "source": null, "name:fr": null, "osm_id": 8854644941, "osm_type": "nodes" }, "geometry": { "type": "Point", "coordinates": [ 1.0758273, 8.3037082 ] } },
{ "type": "Feature", "properties": { "name": "Dispensaire", "name:en": null, "amenity": "hospital", "building": null, "healthcare": null, "healthcare:speciality": null, "operator:type": null, "capacity:persons": null, "addr:full": null, "addr:city": null, "source": null, "name:fr": null, "osm_id": 8791863137, "osm_type": "nodes" }, "geometry": { "type": "Point", "coordinates": [ 1.0335705, 8.2696667 ] } },
{ "type": "Feature", "properties": { "name": null, "name:en": null, "amenity": "clinic", "building": null, "healthcare": null, "healthcare:speciality": null, "operator:type": null, "capacity:persons": null, "addr:full": null, "addr:city": null, "source": null, "name:fr": null, "osm_id": 7070658969, "osm_type": "nodes" }, "geometry": { "type": "Point", "coordinates": [ 1.1495143, 8.9699606 ] } },
{ "type": "Feature", "properties": { "name": null, "name:en": null, "amenity": "pharmacy", "building": null, "healthcare": null, "healthcare:speciality": null, "operator:type": null, "capacity:persons": null, "addr:full": null, "addr:city": null, "source": null, "name:fr": null, "osm_id": 4829693168, "osm_type": "nodes" }, "geometry": { "type": "Point", "coordinates": [ 1.4245586, 9.0263404 ] } },
{ "type": "Feature", "properties": { "name": "USP Kagnikada", "name:en": null, "amenity": "hospital", "building": null, "healthcare": null, "healthcare:speciality": null, "operator:type": null, "capacity:persons": null, "addr:full": null, "addr:city": null, "source": null, "name:fr": null, "osm_id": 9868185346, "osm_type": "nodes" }, "geometry": { "type": "Point", "coordinates": [ 1.3151467, 9.7133767 ] } },
{ "type": "Feature", "properties": { "name": "Dispensaire Pya Pittah", "name:en": null, "amenity": "hospital", "building": null, "healthcare": null, "healthcare:speciality": null, "operator:type": null, "capacity:persons": null, "addr:full": null, "addr:city": null, "source": null, "name:fr": null, "osm_id": 8220148229, "osm_type": "nodes" }, "geometry": { "type": "Point", "coordinates": [ 1.1651531, 9.6797878 ] } },
{ "type": "Feature", "properties": { "name": "USP Goubi", "name:en": null, "amenity": "hospital", "building": null, "healthcare": null, "healthcare:speciality": null, "operator:type": null, "capacity:persons": null, "addr:full": null, "addr:city": null, "source": null, "name:fr": null, "osm_id": 6640926886, "osm_type": "nodes" }, "geometry": { "type": "Point", "coordinates": [ 1.4667024, 8.6516271 ] } },
{ "type": "Feature", "properties": { "name": "Kolowaré", "name:en": null, "amenity": "hospital", "building": null, "healthcare": null, "healthcare:speciality": null, "operator:type": null, "capacity:persons": null, "addr:full": null, "addr:city": null, "source": null, "name:fr": null, "osm_id": 5516178023, "osm_type": "nodes" }, "geometry": { "type": "Point", "coordinates": [ 1.289112, 8.9547395 ] } },
{ "type": "Feature", "properties": { "name": "pharmacie tchaoudjo", "name:en": null, "amenity": "pharmacy", "building": null, "healthcare": "pharmacy", "healthcare:speciality": null, "operator:type": null, "capacity:persons": null, "addr:full": null, "addr:city": null, "source": null, "name:fr": null, "osm_id": 4209505580, "osm_type": "nodes" }, "geometry": { "type": "Point", "coordinates": [ 1.13966, 8.9871054 ] } },
{ "type": "Feature", "properties": { "name": "Centre Médico social Joseph Nascimbeni", "name:en": null, "amenity": "doctors", "building": null, "healthcare": null, "healthcare:speciality": null, "operator:type": null, "capacity:persons": null, "addr:full": null, "addr:city": null, "source": null, "name:fr": null, "osm_id": 8852722617, "osm_type": "nodes" }, "geometry": { "type": "Point", "coordinates": [ 1.4973172, 6.5022963 ] } },
{ "type": "Feature", "properties": { "name": "CMS JOSEPH NASCINBENI DE TODOME", "name:en": null, "amenity": "hospital", "building": null, "healthcare": null, "healthcare:speciality": null, "operator:type": null, "capacity:persons": null, "addr:full": null, "addr:city": null, "source": null, "name:fr": null, "osm_id": 10248618309, "osm_type": "nodes" }, "geometry": { "type": "Point", "coordinates": [ 1.497055, 6.5021051 ] } },
{ "type": "Feature", "properties": { "name": null, "name:en": null, "amenity": "pharmacy", "building": null, "healthcare": null, "healthcare:speciality": null, "operator:type": null, "capacity:persons": null, "addr:full": null, "addr:city": null, "source": "Bing", "name:fr": null, "osm_id": 2975752949, "osm_type": "nodes" }, "geometry": { "type": "Point", "coordinates": [ 1.3961438, 6.6067339 ] } },
{ "type": "Feature", "properties": { "name": null, "name:en": "Clinic of Hahomegbé", "amenity": "clinic", "building": null, "healthcare": null, "healthcare:speciality": null, "operator:type": null, "capacity:persons": null, "addr:full": null, "addr:city": null, "source": null, "name:fr": null, "osm_id": 6255486285, "osm_type": "nodes" }, "geometry": { "type": "Point", "coordinates": [ 1.0231362, 6.9329031 ] } },
{ "type": "Feature", "properties": { "name": "Pharmacie la Vie", "name:en": null, "amenity": "pharmacy", "building": null, "healthcare": null, "healthcare:speciality": null, "operator:type": null, "capacity:persons": null, "addr:full": null, "addr:city": null, "source": null, "name:fr": null, "osm_id": 4211076270, "osm_type": "nodes" }, "geometry": { "type": "Point", "coordinates": [ 1.1726825, 6.9506738 ] } },
{ "type": "Feature", "properties": { "name": "Pharmacie sainte famille", "name:en": null, "amenity": "pharmacy", "building": null, "healthcare": null, "healthcare:speciality": null, "operator:type": null, "capacity:persons": null, "addr:full": null, "addr:city": null, "source": null, "name:fr": null, "osm_id": 10211676399, "osm_type": "nodes" }, "geometry": { "type": "Point", "coordinates": [ 1.1244831, 7.530133 ] } },
{ "type": "Feature", "properties": { "name": "Sainte famille", "name:en": null, "amenity": "pharmacy", "building": null, "healthcare": null, "healthcare:speciality": null, "operator:type": null, "capacity:persons": null, "addr:full": null, "addr:city": null, "source": null, "name:fr": null, "osm_id": 10780631085, "osm_type": "nodes" }, "geometry": { "type": "Point", "coordinates": [ 1.1243994, 7.530007 ] } },
{ "type": "Feature", "properties": { "name": "Pharmacie CHR Atakpame", "name:en": null, "amenity": "pharmacy", "building": null, "healthcare": null, "healthcare:speciality": null, "operator:type": null, "capacity:persons": null, "addr:full": null, "addr:city": null, "source": null, "name:fr": null, "osm_id": 10780631088, "osm_type": "nodes" }, "geometry": { "type": "Point", "coordinates": [ 1.1262785, 7.5327386 ] } },
{ "type": "Feature", "properties": { "name": "CMS Goudeve", "name:en": null, "amenity": "clinic", "building": null, "healthcare": null, "healthcare:speciality": null, "operator:type": null, "capacity:persons": null, "addr:full": null, "addr:city": null, "source": null, "name:fr": null, "osm_id": 4316247466, "osm_type": "nodes" }, "geometry": { "type": "Point", "coordinates": [ 0.7485907, 7.1745437 ] } },
{ "type": "Feature", "properties": { "name": "Pharmacie du Grand plateau", "name:en": null, "amenity": "pharmacy", "building": null, "healthcare": null, "healthcare:speciality": null, "operator:type": null, "capacity:persons": null, "addr:full": null, "addr:city": null, "source": null, "name:fr": null, "osm_id": 10780631091, "osm_type": "nodes" }, "geometry": { "type": "Point", "coordinates": [ 1.1497771, 7.5170019 ] } },
{ "type": "Feature", "properties": { "name": "Dispensaire de Mome Hounkpati", "name:en": null, "amenity": null, "building": null, "healthcare": "nurse", "healthcare:speciality": null, "operator:type": null, "capacity:persons": null, "addr:full": null, "addr:city": null, "source": null, "name:fr": null, "osm_id": 7626112092, "osm_type": "nodes" }, "geometry": { "type": "Point", "coordinates": [ 1.5578471, 6.469253 ] } },
{ "type": "Feature", "properties": { "name": "CHR Atakpame", "name:en": null, "amenity": null, "building": null, "healthcare": "laboratory", "healthcare:speciality": "biology", "operator:type": null, "capacity:persons": null, "addr:full": null, "addr:city": null, "source": null, "name:fr": null, "osm_id": 10782288625, "osm_type": "nodes" }, "geometry": { "type": "Point", "coordinates": [ 1.1258973, 7.5321744 ] } },
{ "type": "Feature", "properties": { "name": "Ana maria", "name:en": null, "amenity": "hospital", "building": null, "healthcare": null, "healthcare:speciality": null, "operator:type": null, "capacity:persons": null, "addr:full": null, "addr:city": null, "source": "WNA Hb - Mia Tou Togo project", "name:fr": null, "osm_id": 10830716943, "osm_type": "nodes" }, "geometry": { "type": "Point", "coordinates": [ 1.1284114, 7.5249642 ] } },
{ "type": "Feature", "properties": { "name": "CMS Anana Maria", "name:en": null, "amenity": "hospital", "building": null, "healthcare": null, "healthcare:speciality": null, "operator:type": null, "capacity:persons": null, "addr:full": null, "addr:city": null, "source": "WNA Hb - Mia Tou Togo project", "name:fr": null, "osm_id": 10830716957, "osm_type": "nodes" }, "geometry": { "type": "Point", "coordinates": [ 1.1485215, 7.5255835 ] } },
{ "type": "Feature", "properties": { "name": "CMS ALEHERI", "name:en": null, "amenity": "hospital", "building": null, "healthcare": null, "healthcare:speciality": null, "operator:type": null, "capacity:persons": null, "addr:full": null, "addr:city": null, "source": null, "name:fr": null, "osm_id": 7070272580, "osm_type": "nodes" }, "geometry": { "type": "Point", "coordinates": [ 1.1449479, 8.9847666 ] } },
{ "type": "Feature", "properties": { "name": "Centre medico social Bon secours", "name:en": null, "amenity": "hospital", "building": null, "healthcare": null, "healthcare:speciality": null, "operator:type": null, "capacity:persons": null, "addr:full": null, "addr:city": null, "source": "WNA Hb - Mia Tou Togo project", "name:fr": null, "osm_id": 10830716959, "osm_type": "nodes" }, "geometry": { "type": "Point", "coordinates": [ 1.1492749, 7.5250623 ] } },
{ "type": "Feature", "properties": { "name": "CMS Bon Secours Agbonou", "name:en": null, "amenity": "hospital", "building": null, "healthcare": null, "healthcare:speciality": null, "operator:type": null, "capacity:persons": null, "addr:full": null, "addr:city": null, "source": "WNA Hb - Mia Tou Togo project", "name:fr": null, "osm_id": 10830716956, "osm_type": "nodes" }, "geometry": { "type": "Point", "coordinates": [ 1.1491775, 7.5253002 ] } },
{ "type": "Feature", "properties": { "name": "USP Kebo Dzigbé", "name:en": null, "amenity": "hospital", "building": null, "healthcare": null, "healthcare:speciality": null, "operator:type": null, "capacity:persons": null, "addr:full": null, "addr:city": null, "source": null, "name:fr": null, "osm_id": 8654069335, "osm_type": "nodes" }, "geometry": { "type": "Point", "coordinates": [ 0.7481338, 6.868758 ] } },
{ "type": "Feature", "properties": { "name": "Pharmacie AZON-CONDJI", "name:en": null, "amenity": "pharmacy", "building": null, "healthcare": null, "healthcare:speciality": null, "operator:type": null, "capacity:persons": null, "addr:full": null, "addr:city": null, "source": "bing; survey", "name:fr": null, "osm_id": 2999565756, "osm_type": "nodes" }, "geometry": { "type": "Point", "coordinates": [ 1.6235337, 6.2404981 ] } },
{ "type": "Feature", "properties": { "name": "Dispensaire de AGOULOUDE", "name:en": null, "amenity": "hospital", "building": null, "healthcare": null, "healthcare:speciality": null, "operator:type": null, "capacity:persons": null, "addr:full": null, "addr:city": null, "source": null, "name:fr": null, "osm_id": 9275291320, "osm_type": "nodes" }, "geometry": { "type": "Point", "coordinates": [ 1.3286596, 9.1183911 ] } },
{ "type": "Feature", "properties": { "name": null, "name:en": null, "amenity": "clinic", "building": null, "healthcare": null, "healthcare:speciality": null, "operator:type": null, "capacity:persons": null, "addr:full": null, "addr:city": null, "source": null, "name:fr": null, "osm_id": 4598676500, "osm_type": "nodes" }, "geometry": { "type": "Point", "coordinates": [ 0.7691046, 6.8246594 ] } },
{ "type": "Feature", "properties": { "name": "Virgo Maria", "name:en": null, "amenity": "clinic", "building": null, "healthcare": null, "healthcare:speciality": null, "operator:type": null, "capacity:persons": null, "addr:full": null, "addr:city": null, "source": "WNA Hb - Mia Tou Togo project", "name:fr": null, "osm_id": 10830716928, "osm_type": "nodes" }, "geometry": { "type": "Point", "coordinates": [ 1.240331, 6.2065199 ] } },
{ "type": "Feature", "properties": { "name": "Pharmacie Deo Gratias", "name:en": null, "amenity": "pharmacy", "building": null, "healthcare": null, "healthcare:speciality": null, "operator:type": null, "capacity:persons": null, "addr:full": null, "addr:city": null, "source": null, "name:fr": null, "osm_id": 10780631072, "osm_type": "nodes" }, "geometry": { "type": "Point", "coordinates": [ 1.2389625, 6.2068923 ] } },
{ "type": "Feature", "properties": { "name": "PHARMACIE DEO GRACIAS", "name:en": null, "amenity": "pharmacy", "building": null, "healthcare": "pharmacy", "healthcare:speciality": null, "operator:type": null, "capacity:persons": null, "addr:full": null, "addr:city": null, "source": null, "name:fr": null, "osm_id": 10616645848, "osm_type": "nodes" }, "geometry": { "type": "Point", "coordinates": [ 1.2391657, 6.2068776 ] } },
{ "type": "Feature", "properties": { "name": "Pharmacie Arevis", "name:en": null, "amenity": "pharmacy", "building": null, "healthcare": null, "healthcare:speciality": null, "operator:type": null, "capacity:persons": null, "addr:full": null, "addr:city": null, "source": null, "name:fr": null, "osm_id": 4088806705, "osm_type": "nodes" }, "geometry": { "type": "Point", "coordinates": [ 1.5265736, 6.332525 ] } },
{ "type": "Feature", "properties": { "name": "Poste d'inspection phytosanitaire", "name:en": null, "amenity": "hospital", "building": null, "healthcare": null, "healthcare:speciality": null, "operator:type": null, "capacity:persons": null, "addr:full": null, "addr:city": null, "source": null, "name:fr": null, "osm_id": 4407717684, "osm_type": "nodes" }, "geometry": { "type": "Point", "coordinates": [ 1.6321013, 6.2405546 ] } },
{ "type": "Feature", "properties": { "name": "Pharmacie La Référence", "name:en": null, "amenity": "pharmacy", "building": null, "healthcare": null, "healthcare:speciality": null, "operator:type": null, "capacity:persons": null, "addr:full": null, "addr:city": null, "source": null, "name:fr": null, "osm_id": 3477726755, "osm_type": "nodes" }, "geometry": { "type": "Point", "coordinates": [ 1.1488228, 6.2004215 ] } },
{ "type": "Feature", "properties": { "name": "Pharmacie des Orchidées", "name:en": null, "amenity": "pharmacy", "building": null, "healthcare": null, "healthcare:speciality": null, "operator:type": null, "capacity:persons": null, "addr:full": null, "addr:city": null, "source": null, "name:fr": null, "osm_id": 3292288008, "osm_type": "nodes" }, "geometry": { "type": "Point", "coordinates": [ 1.1771699, 6.2113261 ] } },
{ "type": "Feature", "properties": { "name": "Centre Traditionnel de sante EYA-ABIYE", "name:en": null, "amenity": "doctors", "building": null, "healthcare": null, "healthcare:speciality": null, "operator:type": null, "capacity:persons": null, "addr:full": null, "addr:city": null, "source": "bing;survey 2014", "name:fr": null, "osm_id": 2999860535, "osm_type": "nodes" }, "geometry": { "type": "Point", "coordinates": [ 1.6112299, 6.2379687 ] } },
{ "type": "Feature", "properties": { "name": "Pomefa Polyclinique Mère et Enfant", "name:en": null, "amenity": "hospital", "building": null, "healthcare": "clinic", "healthcare:speciality": null, "operator:type": null, "capacity:persons": null, "addr:full": null, "addr:city": null, "source": null, "name:fr": null, "osm_id": 7625773659, "osm_type": "nodes" }, "geometry": { "type": "Point", "coordinates": [ 1.5948307, 6.2293738 ] } },
{ "type": "Feature", "properties": { "name": "Raoudha", "name:en": "Raoudha", "amenity": "pharmacy", "building": null, "healthcare": "pharmacy", "healthcare:speciality": null, "operator:type": null, "capacity:persons": null, "addr:full": null, "addr:city": null, "source": null, "name:fr": "Raoudha", "osm_id": 4784163121, "osm_type": "nodes" }, "geometry": { "type": "Point", "coordinates": [ 1.2539059, 6.1945897 ] } },
{ "type": "Feature", "properties": { "name": "Pharmacie CITRUS", "name:en": null, "amenity": "pharmacy", "building": null, "healthcare": "pharmacy", "healthcare:speciality": null, "operator:type": null, "capacity:persons": null, "addr:full": null, "addr:city": null, "source": null, "name:fr": "Pharmacie CITRUS", "osm_id": 4521115196, "osm_type": "nodes" }, "geometry": { "type": "Point", "coordinates": [ 1.2537564, 6.205489 ] } },
{ "type": "Feature", "properties": { "name": "USP Badougbé", "name:en": null, "amenity": "hospital", "building": null, "healthcare": null, "healthcare:speciality": null, "operator:type": null, "capacity:persons": null, "addr:full": null, "addr:city": null, "source": null, "name:fr": null, "osm_id": 9355947181, "osm_type": "nodes" }, "geometry": { "type": "Point", "coordinates": [ 1.5132029, 6.2378848 ] } },
{ "type": "Feature", "properties": { "name": "Unité de Soin Périphérique de Kpémé", "name:en": null, "amenity": "hospital", "building": null, "healthcare": "nurse", "healthcare:speciality": null, "operator:type": null, "capacity:persons": null, "addr:full": null, "addr:city": null, "source": null, "name:fr": null, "osm_id": 7625773648, "osm_type": "nodes" }, "geometry": { "type": "Point", "coordinates": [ 1.5047964, 6.2120027 ] } },
{ "type": "Feature", "properties": { "name": "Mawunyo", "name:en": null, "amenity": "pharmacy", "building": null, "healthcare": null, "healthcare:speciality": null, "operator:type": null, "capacity:persons": null, "addr:full": null, "addr:city": null, "source": null, "name:fr": null, "osm_id": 9906551875, "osm_type": "nodes" }, "geometry": { "type": "Point", "coordinates": [ 1.1713337, 6.2548621 ] } },
{ "type": "Feature", "properties": { "name": "Pharmacie La Pharmacie Tulipe", "name:en": null, "amenity": "pharmacy", "building": null, "healthcare": null, "healthcare:speciality": null, "operator:type": null, "capacity:persons": null, "addr:full": null, "addr:city": null, "source": null, "name:fr": null, "osm_id": 8861036540, "osm_type": "nodes" }, "geometry": { "type": "Point", "coordinates": [ 1.1631053, 6.2605816 ] } },
{ "type": "Feature", "properties": { "name": "Pharmacie Denis", "name:en": null, "amenity": "pharmacy", "building": null, "healthcare": null, "healthcare:speciality": null, "operator:type": null, "capacity:persons": null, "addr:full": null, "addr:city": null, "source": null, "name:fr": null, "osm_id": 9287154979, "osm_type": "nodes" }, "geometry": { "type": "Point", "coordinates": [ 1.1617103, 6.2476092 ] } },
{ "type": "Feature", "properties": { "name": "Dispensaire Hahotoe", "name:en": null, "amenity": "hospital", "building": null, "healthcare": "nurse", "healthcare:speciality": null, "operator:type": null, "capacity:persons": null, "addr:full": null, "addr:city": null, "source": null, "name:fr": null, "osm_id": 7626334872, "osm_type": "nodes" }, "geometry": { "type": "Point", "coordinates": [ 1.41188, 6.3689703 ] } },
{ "type": "Feature", "properties": { "name": "CMS Anana Maria", "name:en": null, "amenity": null, "building": null, "healthcare": "laboratory", "healthcare:speciality": "biology", "operator:type": null, "capacity:persons": null, "addr:full": null, "addr:city": null, "source": null, "name:fr": null, "osm_id": 10782288626, "osm_type": "nodes" }, "geometry": { "type": "Point", "coordinates": [ 1.1483254, 7.5255797 ] } },
{ "type": "Feature", "properties": { "name": "CMS Tcèkèlè", "name:en": null, "amenity": null, "building": null, "healthcare": "hospital", "healthcare:speciality": null, "operator:type": null, "capacity:persons": null, "addr:full": null, "addr:city": null, "source": null, "name:fr": null, "osm_id": 8728003468, "osm_type": "nodes" }, "geometry": { "type": "Point", "coordinates": [ 1.4176373, 8.9945674 ] } },
{ "type": "Feature", "properties": { "name": null, "name:en": null, "amenity": null, "building": null, "healthcare": "yes", "healthcare:speciality": null, "operator:type": null, "capacity:persons": null, "addr:full": null, "addr:city": null, "source": null, "name:fr": null, "osm_id": 5110917111, "osm_type": "nodes" }, "geometry": { "type": "Point", "coordinates": [ 1.1687519, 6.1763142 ] } },
{ "type": "Feature", "properties": { "name": "Centre de Prévention du Diabète Sucré", "name:en": null, "amenity": null, "building": null, "healthcare": "yes", "healthcare:speciality": null, "operator:type": null, "capacity:persons": null, "addr:full": null, "addr:city": null, "source": null, "name:fr": null, "osm_id": 11262872600, "osm_type": "nodes" }, "geometry": { "type": "Point", "coordinates": [ 1.2473875, 6.2055967 ] } },
{ "type": "Feature", "properties": { "name": "Pharmacie la CHARITE", "name:en": null, "amenity": "pharmacy", "building": null, "healthcare": null, "healthcare:speciality": null, "operator:type": null, "capacity:persons": null, "addr:full": null, "addr:city": null, "source": null, "name:fr": null, "osm_id": 3733654344, "osm_type": "nodes" }, "geometry": { "type": "Point", "coordinates": [ 1.2048486, 6.2254357 ] } },
{ "type": "Feature", "properties": { "name": "Cabinet Médical Ste VERONIQUE", "name:en": null, "amenity": "clinic", "building": null, "healthcare": null, "healthcare:speciality": null, "operator:type": null, "capacity:persons": null, "addr:full": null, "addr:city": null, "source": null, "name:fr": null, "osm_id": 7703902085, "osm_type": "nodes" }, "geometry": { "type": "Point", "coordinates": [ 1.2183265, 6.2250364 ] } },
{ "type": "Feature", "properties": { "name": "Pharmacie Vita-Flore", "name:en": null, "amenity": "pharmacy", "building": null, "healthcare": null, "healthcare:speciality": null, "operator:type": null, "capacity:persons": null, "addr:full": null, "addr:city": null, "source": null, "name:fr": null, "osm_id": 5172737826, "osm_type": "nodes" }, "geometry": { "type": "Point", "coordinates": [ 1.1653079, 6.2220049 ] } },
{ "type": "Feature", "properties": { "name": "Dr. KOMBATÉ Patrick (Maison)", "name:en": null, "amenity": "doctors", "building": null, "healthcare": null, "healthcare:speciality": null, "operator:type": null, "capacity:persons": null, "addr:full": null, "addr:city": null, "source": null, "name:fr": null, "osm_id": 7947515085, "osm_type": "nodes" }, "geometry": { "type": "Point", "coordinates": [ 1.1835343, 6.2221099 ] } },
{ "type": "Feature", "properties": { "name": "Professeur Agree DAMOROU", "name:en": null, "amenity": "hospital", "building": null, "healthcare": null, "healthcare:speciality": null, "operator:type": null, "capacity:persons": null, "addr:full": null, "addr:city": null, "source": null, "name:fr": null, "osm_id": 5775782196, "osm_type": "nodes" }, "geometry": { "type": "Point", "coordinates": [ 1.1808283, 6.22373 ] } },
{ "type": "Feature", "properties": { "name": "CMS de l'association AAPV", "name:en": null, "amenity": "clinic", "building": null, "healthcare": null, "healthcare:speciality": null, "operator:type": null, "capacity:persons": null, "addr:full": null, "addr:city": null, "source": null, "name:fr": null, "osm_id": 9296521609, "osm_type": "nodes" }, "geometry": { "type": "Point", "coordinates": [ 1.1965237, 6.2437061 ] } },
{ "type": "Feature", "properties": { "name": "Pharmacie Emmaus", "name:en": null, "amenity": "pharmacy", "building": null, "healthcare": null, "healthcare:speciality": null, "operator:type": null, "capacity:persons": null, "addr:full": null, "addr:city": null, "source": "Bing;Survey", "name:fr": null, "osm_id": 2514667734, "osm_type": "nodes" }, "geometry": { "type": "Point", "coordinates": [ 1.1940329, 6.2358935 ] } },
{ "type": "Feature", "properties": { "name": "Pharmacie La Main de Dieu", "name:en": null, "amenity": "pharmacy", "building": null, "healthcare": null, "healthcare:speciality": null, "operator:type": null, "capacity:persons": null, "addr:full": null, "addr:city": null, "source": null, "name:fr": null, "osm_id": 8426662993, "osm_type": "nodes" }, "geometry": { "type": "Point", "coordinates": [ 1.2003304, 6.235027 ] } },
{ "type": "Feature", "properties": { "name": "Pharmacie Divina Gracia", "name:en": null, "amenity": "pharmacy", "building": null, "healthcare": null, "healthcare:speciality": null, "operator:type": null, "capacity:persons": null, "addr:full": null, "addr:city": null, "source": null, "name:fr": null, "osm_id": 4332726836, "osm_type": "nodes" }, "geometry": { "type": "Point", "coordinates": [ 1.1889724, 6.2329466 ] } },
{ "type": "Feature", "properties": { "name": null, "name:en": null, "amenity": "clinic", "building": null, "healthcare": null, "healthcare:speciality": null, "operator:type": null, "capacity:persons": null, "addr:full": null, "addr:city": null, "source": null, "name:fr": null, "osm_id": 6360686996, "osm_type": "nodes" }, "geometry": { "type": "Point", "coordinates": [ 1.1900251, 6.2255409 ] } },
{ "type": "Feature", "properties": { "name": "Clinic", "name:en": null, "amenity": "clinic", "building": null, "healthcare": null, "healthcare:speciality": null, "operator:type": null, "capacity:persons": null, "addr:full": null, "addr:city": null, "source": null, "name:fr": null, "osm_id": 11152761989, "osm_type": "nodes" }, "geometry": { "type": "Point", "coordinates": [ 1.1767582, 6.2353437 ] } },
{ "type": "Feature", "properties": { "name": "Pharmacie Abraham", "name:en": null, "amenity": "pharmacy", "building": null, "healthcare": null, "healthcare:speciality": null, "operator:type": null, "capacity:persons": null, "addr:full": null, "addr:city": null, "source": null, "name:fr": null, "osm_id": 5196042330, "osm_type": "nodes" }, "geometry": { "type": "Point", "coordinates": [ 1.1753172, 6.2346078 ] } },
{ "type": "Feature", "properties": { "name": "CMS Virginia", "name:en": null, "amenity": "clinic", "building": null, "healthcare": null, "healthcare:speciality": null, "operator:type": null, "capacity:persons": null, "addr:full": null, "addr:city": null, "source": null, "name:fr": null, "osm_id": 10291301694, "osm_type": "nodes" }, "geometry": { "type": "Point", "coordinates": [ 1.1308635, 6.287854 ] } },
{ "type": "Feature", "properties": { "name": "CMS Miséricorde Jean Jacques BAZIN", "name:en": null, "amenity": "hospital", "building": null, "healthcare": null, "healthcare:speciality": null, "operator:type": null, "capacity:persons": null, "addr:full": null, "addr:city": null, "source": null, "name:fr": null, "osm_id": 10830716922, "osm_type": "nodes" }, "geometry": { "type": "Point", "coordinates": [ 1.2332184, 6.2064735 ] } },
{ "type": "Feature", "properties": { "name": "Cabinet médical spécialisé ORL", "name:en": null, "amenity": "hospital", "building": null, "healthcare": null, "healthcare:speciality": null, "operator:type": null, "capacity:persons": null, "addr:full": null, "addr:city": null, "source": null, "name:fr": null, "osm_id": 10800072150, "osm_type": "nodes" }, "geometry": { "type": "Point", "coordinates": [ 1.2127343, 6.2155137 ] } },
{ "type": "Feature", "properties": { "name": "La Grace", "name:en": null, "amenity": "pharmacy", "building": null, "healthcare": null, "healthcare:speciality": null, "operator:type": null, "capacity:persons": null, "addr:full": null, "addr:city": null, "source": null, "name:fr": null, "osm_id": 2603626243, "osm_type": "nodes" }, "geometry": { "type": "Point", "coordinates": [ 1.2091379, 6.219508 ] } },
{ "type": "Feature", "properties": { "name": "Pharmacie Shalom", "name:en": null, "amenity": "pharmacy", "building": null, "healthcare": null, "healthcare:speciality": null, "operator:type": null, "capacity:persons": null, "addr:full": null, "addr:city": null, "source": "Bing;Survey", "name:fr": null, "osm_id": 2603657484, "osm_type": "nodes" }, "geometry": { "type": "Point", "coordinates": [ 1.203511, 6.2176737 ] } },
{ "type": "Feature", "properties": { "name": "Pharmacie Laus Deo", "name:en": null, "amenity": "pharmacy", "building": null, "healthcare": null, "healthcare:speciality": null, "operator:type": null, "capacity:persons": null, "addr:full": null, "addr:city": null, "source": "bing;survey", "name:fr": null, "osm_id": 3575063194, "osm_type": "nodes" }, "geometry": { "type": "Point", "coordinates": [ 1.1831321, 6.2070435 ] } },
{ "type": "Feature", "properties": { "name": "Clinique Bethesda", "name:en": null, "amenity": "clinic", "building": null, "healthcare": null, "healthcare:speciality": null, "operator:type": null, "capacity:persons": null, "addr:full": null, "addr:city": null, "source": null, "name:fr": null, "osm_id": 9080822271, "osm_type": "nodes" }, "geometry": { "type": "Point", "coordinates": [ 1.1830116, 6.2046265 ] } },
{ "type": "Feature", "properties": { "name": "Pharmacie Solidarité", "name:en": null, "amenity": "pharmacy", "building": null, "healthcare": null, "healthcare:speciality": null, "operator:type": null, "capacity:persons": null, "addr:full": null, "addr:city": null, "source": null, "name:fr": null, "osm_id": 2559924556, "osm_type": "nodes" }, "geometry": { "type": "Point", "coordinates": [ 1.1867889, 6.1966467 ] } },
{ "type": "Feature", "properties": { "name": "Clinique de Tsotsi", "name:en": null, "amenity": "clinic", "building": null, "healthcare": null, "healthcare:speciality": null, "operator:type": null, "capacity:persons": null, "addr:full": null, "addr:city": null, "source": null, "name:fr": null, "osm_id": 9363332906, "osm_type": "nodes" }, "geometry": { "type": "Point", "coordinates": [ 1.1820596, 6.1950789 ] } },
{ "type": "Feature", "properties": { "name": "Centre médico-social d'Aképé", "name:en": null, "amenity": "clinic", "building": null, "healthcare": null, "healthcare:speciality": null, "operator:type": null, "capacity:persons": null, "addr:full": null, "addr:city": null, "source": "OSM note", "name:fr": null, "osm_id": 4717548911, "osm_type": "nodes" }, "geometry": { "type": "Point", "coordinates": [ 1.0600315, 6.2417144 ] } },
{ "type": "Feature", "properties": { "name": "Pharmacie Zossimé", "name:en": null, "amenity": "pharmacy", "building": null, "healthcare": null, "healthcare:speciality": null, "operator:type": null, "capacity:persons": null, "addr:full": null, "addr:city": null, "source": null, "name:fr": null, "osm_id": 6917401841, "osm_type": "nodes" }, "geometry": { "type": "Point", "coordinates": [ 1.1489943, 6.2333568 ] } },
{ "type": "Feature", "properties": { "name": null, "name:en": null, "amenity": "clinic", "building": null, "healthcare": null, "healthcare:speciality": null, "operator:type": null, "capacity:persons": null, "addr:full": null, "addr:city": null, "source": null, "name:fr": null, "osm_id": 9275634306, "osm_type": "nodes" }, "geometry": { "type": "Point", "coordinates": [ 1.1579167, 6.2193083 ] } },
{ "type": "Feature", "properties": { "name": "Pharmacie Ganfat", "name:en": null, "amenity": "pharmacy", "building": null, "healthcare": null, "healthcare:speciality": null, "operator:type": null, "capacity:persons": null, "addr:full": null, "addr:city": null, "source": null, "name:fr": null, "osm_id": 8237972058, "osm_type": "nodes" }, "geometry": { "type": "Point", "coordinates": [ 1.162816, 6.2374252 ] } },
{ "type": "Feature", "properties": { "name": "Pharmacie Principale", "name:en": null, "amenity": "pharmacy", "building": null, "healthcare": null, "healthcare:speciality": null, "operator:type": null, "capacity:persons": null, "addr:full": null, "addr:city": null, "source": null, "name:fr": null, "osm_id": 10814097932, "osm_type": "nodes" }, "geometry": { "type": "Point", "coordinates": [ 1.3753905, 6.1779708 ] } },
{ "type": "Feature", "properties": { "name": "Pharmacie la Flamme d'amour", "name:en": null, "amenity": "pharmacy", "building": null, "healthcare": null, "healthcare:speciality": null, "operator:type": null, "capacity:persons": null, "addr:full": null, "addr:city": null, "source": null, "name:fr": null, "osm_id": 7124412355, "osm_type": "nodes" }, "geometry": { "type": "Point", "coordinates": [ 1.3658529, 6.1763793 ] } },
{ "type": "Feature", "properties": { "name": "Pharmacie Hygea", "name:en": null, "amenity": "pharmacy", "building": null, "healthcare": "pharmacy", "healthcare:speciality": null, "operator:type": null, "capacity:persons": null, "addr:full": null, "addr:city": null, "source": null, "name:fr": null, "osm_id": 5677844651, "osm_type": "nodes" }, "geometry": { "type": "Point", "coordinates": [ 1.329995, 6.17841 ] } },
{ "type": "Feature", "properties": { "name": "ONG ACT-AFRIQUE", "name:en": null, "amenity": "clinic", "building": null, "healthcare": null, "healthcare:speciality": null, "operator:type": null, "capacity:persons": null, "addr:full": null, "addr:city": null, "source": null, "name:fr": "ONG ACT-AFRIQUE", "osm_id": 4565728189, "osm_type": "nodes" }, "geometry": { "type": "Point", "coordinates": [ 1.2201025, 6.2392382 ] } },
{ "type": "Feature", "properties": { "name": "Pharmacie ADONAI", "name:en": null, "amenity": "pharmacy", "building": null, "healthcare": null, "healthcare:speciality": null, "operator:type": null, "capacity:persons": null, "addr:full": null, "addr:city": null, "source": "Bing;Survey", "name:fr": null, "osm_id": 3733654340, "osm_type": "nodes" }, "geometry": { "type": "Point", "coordinates": [ 1.2104777, 6.2319049 ] } },
{ "type": "Feature", "properties": { "name": "Siège Aime-Afrique TOGO", "name:en": null, "amenity": "clinic", "building": null, "healthcare": null, "healthcare:speciality": null, "operator:type": null, "capacity:persons": null, "addr:full": null, "addr:city": null, "source": "survey", "name:fr": null, "osm_id": 6293224397, "osm_type": "nodes" }, "geometry": { "type": "Point", "coordinates": [ 1.1846315, 6.2059751 ] } },
{ "type": "Feature", "properties": { "name": "Pharmacie DELALI", "name:en": null, "amenity": "pharmacy", "building": null, "healthcare": null, "healthcare:speciality": null, "operator:type": null, "capacity:persons": null, "addr:full": null, "addr:city": null, "source": null, "name:fr": null, "osm_id": 3733654342, "osm_type": "nodes" }, "geometry": { "type": "Point", "coordinates": [ 1.1952131, 6.2078133 ] } },
{ "type": "Feature", "properties": { "name": "Pharmacie St Michel", "name:en": null, "amenity": "pharmacy", "building": null, "healthcare": null, "healthcare:speciality": null, "operator:type": null, "capacity:persons": null, "addr:full": null, "addr:city": null, "source": null, "name:fr": null, "osm_id": 3733654343, "osm_type": "nodes" }, "geometry": { "type": "Point", "coordinates": [ 1.2083415, 6.2138768 ] } },
{ "type": "Feature", "properties": { "name": "Clinique l'Éternel Guérit", "name:en": null, "amenity": "clinic", "building": null, "healthcare": null, "healthcare:speciality": null, "operator:type": null, "capacity:persons": null, "addr:full": null, "addr:city": null, "source": null, "name:fr": null, "osm_id": 9005979120, "osm_type": "nodes" }, "geometry": { "type": "Point", "coordinates": [ 1.1748193, 6.207645 ] } },
{ "type": "Feature", "properties": { "name": "Pharmacie APOLLON", "name:en": null, "amenity": "pharmacy", "building": null, "healthcare": null, "healthcare:speciality": null, "operator:type": null, "capacity:persons": null, "addr:full": null, "addr:city": null, "source": "bing, survey", "name:fr": null, "osm_id": 3575199602, "osm_type": "nodes" }, "geometry": { "type": "Point", "coordinates": [ 1.1669399, 6.2026328 ] } },
{ "type": "Feature", "properties": { "name": "Iris Pharmacie", "name:en": null, "amenity": "pharmacy", "building": null, "healthcare": null, "healthcare:speciality": null, "operator:type": null, "capacity:persons": null, "addr:full": null, "addr:city": null, "source": null, "name:fr": null, "osm_id": 10990390627, "osm_type": "nodes" }, "geometry": { "type": "Point", "coordinates": [ 1.1612956, 6.2028574 ] } },
{ "type": "Feature", "properties": { "name": "Pharmacie Dieudonné", "name:en": null, "amenity": "pharmacy", "building": null, "healthcare": null, "healthcare:speciality": null, "operator:type": null, "capacity:persons": null, "addr:full": null, "addr:city": null, "source": "bing;survey", "name:fr": null, "osm_id": 3575063193, "osm_type": "nodes" }, "geometry": { "type": "Point", "coordinates": [ 1.1723495, 6.2158499 ] } },
{ "type": "Feature", "properties": { "name": "PHARMACIE EL SHAMMAH", "name:en": null, "amenity": "pharmacy", "building": null, "healthcare": null, "healthcare:speciality": null, "operator:type": null, "capacity:persons": null, "addr:full": null, "addr:city": null, "source": null, "name:fr": "PHARMACIE EL SHAMMAH", "osm_id": 5018536923, "osm_type": "nodes" }, "geometry": { "type": "Point", "coordinates": [ 1.1598501, 6.2090184 ] } },
{ "type": "Feature", "properties": { "name": "CMS ELAVAGNON", "name:en": null, "amenity": "hospital", "building": null, "healthcare": null, "healthcare:speciality": null, "operator:type": null, "capacity:persons": null, "addr:full": null, "addr:city": null, "source": null, "name:fr": null, "osm_id": 9164699518, "osm_type": "nodes" }, "geometry": { "type": "Point", "coordinates": [ 1.172807, 6.2092382 ] } },
{ "type": "Feature", "properties": { "name": "Mama Clinique", "name:en": null, "amenity": "clinic", "building": null, "healthcare": null, "healthcare:speciality": null, "operator:type": null, "capacity:persons": null, "addr:full": null, "addr:city": null, "source": null, "name:fr": null, "osm_id": 9507953624, "osm_type": "nodes" }, "geometry": { "type": "Point", "coordinates": [ 1.1746304, 6.2099719 ] } },
{ "type": "Feature", "properties": { "name": "Pharmacie Le Millenaire", "name:en": null, "amenity": "pharmacy", "building": null, "healthcare": null, "healthcare:speciality": null, "operator:type": null, "capacity:persons": null, "addr:full": null, "addr:city": null, "source": "bing;survey", "name:fr": null, "osm_id": 3575063196, "osm_type": "nodes" }, "geometry": { "type": "Point", "coordinates": [ 1.1896092, 6.2068745 ] } },
{ "type": "Feature", "properties": { "name": "Notre Dame de LOURDES", "name:en": null, "amenity": "pharmacy", "building": null, "healthcare": null, "healthcare:speciality": null, "operator:type": null, "capacity:persons": null, "addr:full": null, "addr:city": null, "source": "bing;survey", "name:fr": null, "osm_id": 3575063197, "osm_type": "nodes" }, "geometry": { "type": "Point", "coordinates": [ 1.1887731, 6.2167697 ] } },
{ "type": "Feature", "properties": { "name": "Soins Infirmiers Des Anges", "name:en": null, "amenity": null, "building": null, "healthcare": "yes", "healthcare:speciality": null, "operator:type": null, "capacity:persons": null, "addr:full": null, "addr:city": null, "source": null, "name:fr": null, "osm_id": 9202832294, "osm_type": "nodes" }, "geometry": { "type": "Point", "coordinates": [ 1.1886146, 6.2393736 ] } },
{ "type": "Feature", "properties": { "name": "Saint Roch", "name:en": null, "amenity": null, "building": null, "healthcare": "yes", "healthcare:speciality": null, "operator:type": null, "capacity:persons": null, "addr:full": null, "addr:city": null, "source": null, "name:fr": null, "osm_id": 10770743437, "osm_type": "nodes" }, "geometry": { "type": "Point", "coordinates": [ 1.1868463, 6.2059062 ] } },
{ "type": "Feature", "properties": { "name": "Cabinet Naturotherapeutique chinois Santé - Vitalité", "name:en": null, "amenity": "clinic", "building": null, "healthcare": null, "healthcare:speciality": null, "operator:type": null, "capacity:persons": null, "addr:full": null, "addr:city": null, "source": null, "name:fr": null, "osm_id": 4160292221, "osm_type": "nodes" }, "geometry": { "type": "Point", "coordinates": [ 1.2006862, 6.1976863 ] } },
{ "type": "Feature", "properties": { "name": "Pharmacie Enouli", "name:en": null, "amenity": "pharmacy", "building": null, "healthcare": null, "healthcare:speciality": null, "operator:type": null, "capacity:persons": null, "addr:full": null, "addr:city": null, "source": null, "name:fr": null, "osm_id": 10781895553, "osm_type": "nodes" }, "geometry": { "type": "Point", "coordinates": [ 1.2014823, 6.2005233 ] } },
{ "type": "Feature", "properties": { "name": "Case de santé d' Atidè", "name:en": null, "amenity": "hospital", "building": null, "healthcare": null, "healthcare:speciality": null, "operator:type": null, "capacity:persons": null, "addr:full": null, "addr:city": null, "source": null, "name:fr": null, "osm_id": 9051879093, "osm_type": "nodes" }, "geometry": { "type": "Point", "coordinates": [ 1.0693654, 6.2980446 ] } },
{ "type": "Feature", "properties": { "name": "USP Aképé", "name:en": null, "amenity": "hospital", "building": null, "healthcare": null, "healthcare:speciality": null, "operator:type": null, "capacity:persons": null, "addr:full": null, "addr:city": null, "source": null, "name:fr": null, "osm_id": 10598913495, "osm_type": "nodes" }, "geometry": { "type": "Point", "coordinates": [ 1.03382, 6.265095 ] } },
{ "type": "Feature", "properties": { "name": "Case de Santé de meduimé", "name:en": null, "amenity": "hospital", "building": null, "healthcare": null, "healthcare:speciality": null, "operator:type": null, "capacity:persons": null, "addr:full": null, "addr:city": null, "source": null, "name:fr": null, "osm_id": 8872050254, "osm_type": "nodes" }, "geometry": { "type": "Point", "coordinates": [ 1.0937351, 6.410237 ] } },
{ "type": "Feature", "properties": { "name": "Centre de la Medecine Naturo-Phyto-Thérapie (Mouhamed)", "name:en": null, "amenity": "clinic", "building": null, "healthcare": null, "healthcare:speciality": null, "operator:type": null, "capacity:persons": null, "addr:full": null, "addr:city": null, "source": null, "name:fr": null, "osm_id": 6316550286, "osm_type": "nodes" }, "geometry": { "type": "Point", "coordinates": [ 1.1542307, 6.2123771 ] } },
{ "type": "Feature", "properties": { "name": "Pharmacie SILOE", "name:en": null, "amenity": "pharmacy", "building": null, "healthcare": null, "healthcare:speciality": null, "operator:type": null, "capacity:persons": null, "addr:full": null, "addr:city": null, "source": "bing, survey", "name:fr": null, "osm_id": 3575199609, "osm_type": "nodes" }, "geometry": { "type": "Point", "coordinates": [ 1.1408981, 6.2068325 ] } },
{ "type": "Feature", "properties": { "name": "Clinique Ophtalmologique Lumière Divine", "name:en": null, "amenity": "clinic", "building": null, "healthcare": null, "healthcare:speciality": null, "operator:type": null, "capacity:persons": null, "addr:full": null, "addr:city": null, "source": null, "name:fr": null, "osm_id": 6770089218, "osm_type": "nodes" }, "geometry": { "type": "Point", "coordinates": [ 1.1885063, 6.1969505 ] } },
{ "type": "Feature", "properties": { "name": "Lumière", "name:en": null, "amenity": "pharmacy", "building": null, "healthcare": null, "healthcare:speciality": null, "operator:type": null, "capacity:persons": null, "addr:full": null, "addr:city": null, "source": null, "name:fr": null, "osm_id": 5343281121, "osm_type": "nodes" }, "geometry": { "type": "Point", "coordinates": [ 1.1951491, 6.2012618 ] } },
{ "type": "Feature", "properties": { "name": "Dispensaire", "name:en": null, "amenity": "clinic", "building": null, "healthcare": "clinic", "healthcare:speciality": null, "operator:type": null, "capacity:persons": null, "addr:full": null, "addr:city": null, "source": null, "name:fr": "Dispensaire", "osm_id": 5155100521, "osm_type": "nodes" }, "geometry": { "type": "Point", "coordinates": [ 0.3809707, 10.9386615 ] } },
{ "type": "Feature", "properties": { "name": "Dépôt de pharmacie", "name:en": null, "amenity": "pharmacy", "building": null, "healthcare": "pharmacy", "healthcare:speciality": null, "operator:type": null, "capacity:persons": null, "addr:full": null, "addr:city": null, "source": null, "name:fr": null, "osm_id": 8798036518, "osm_type": "nodes" }, "geometry": { "type": "Point", "coordinates": [ 0.309822, 10.9128703 ] } },
{ "type": "Feature", "properties": { "name": "Clinique Sainte Bakita", "name:en": null, "amenity": "clinic", "building": null, "healthcare": null, "healthcare:speciality": null, "operator:type": null, "capacity:persons": null, "addr:full": null, "addr:city": null, "source": null, "name:fr": null, "osm_id": 11371081792, "osm_type": "nodes" }, "geometry": { "type": "Point", "coordinates": [ 1.1623433, 6.2599268 ] } },
{ "type": "Feature", "properties": { "name": "Centre Médical des familles de Dapaong", "name:en": null, "amenity": "hospital", "building": null, "healthcare": "hospital", "healthcare:speciality": null, "operator:type": null, "capacity:persons": null, "addr:full": null, "addr:city": null, "source": null, "name:fr": null, "osm_id": 8222064514, "osm_type": "nodes" }, "geometry": { "type": "Point", "coordinates": [ 0.199755, 10.8814974 ] } },
{ "type": "Feature", "properties": { "name": "USP Katindi", "name:en": null, "amenity": "hospital", "building": null, "healthcare": "hospital", "healthcare:speciality": null, "operator:type": null, "capacity:persons": null, "addr:full": null, "addr:city": null, "source": null, "name:fr": null, "osm_id": 8798036560, "osm_type": "nodes" }, "geometry": { "type": "Point", "coordinates": [ 0.2773914, 10.8925453 ] } },
{ "type": "Feature", "properties": { "name": "USP", "name:en": null, "amenity": "hospital", "building": null, "healthcare": "hospital", "healthcare:speciality": null, "operator:type": null, "capacity:persons": null, "addr:full": null, "addr:city": null, "source": null, "name:fr": null, "osm_id": 8798152534, "osm_type": "nodes" }, "geometry": { "type": "Point", "coordinates": [ 0.3083682, 10.9077688 ] } },
{ "type": "Feature", "properties": { "name": "CMS Kountong-Bong", "name:en": null, "amenity": "hospital", "building": null, "healthcare": "hospital", "healthcare:speciality": null, "operator:type": null, "capacity:persons": null, "addr:full": null, "addr:city": null, "source": null, "name:fr": null, "osm_id": 9053009386, "osm_type": "nodes" }, "geometry": { "type": "Point", "coordinates": [ 0.2244671, 10.8912279 ] } },
{ "type": "Feature", "properties": { "name": "Cabinet Médical Gratis Dei", "name:en": null, "amenity": "clinic", "building": null, "healthcare": null, "healthcare:speciality": null, "operator:type": null, "capacity:persons": null, "addr:full": null, "addr:city": null, "source": null, "name:fr": null, "osm_id": 11369685793, "osm_type": "nodes" }, "geometry": { "type": "Point", "coordinates": [ 1.2111097, 6.2174908 ] } },
{ "type": "Feature", "properties": { "name": "USP", "name:en": null, "amenity": "hospital", "building": null, "healthcare": null, "healthcare:speciality": null, "operator:type": null, "capacity:persons": null, "addr:full": null, "addr:city": null, "source": null, "name:fr": null, "osm_id": 12252458876, "osm_type": "nodes" }, "geometry": { "type": "Point", "coordinates": [ 0.9654046, 6.9097894 ] } },
{ "type": "Feature", "properties": { "name": "Clinique Sainte Fatima", "name:en": null, "amenity": "clinic", "building": null, "healthcare": null, "healthcare:speciality": null, "operator:type": null, "capacity:persons": null, "addr:full": null, "addr:city": null, "source": null, "name:fr": null, "osm_id": 11371081791, "osm_type": "nodes" }, "geometry": { "type": "Point", "coordinates": [ 1.1620858, 6.2589803 ] } },
{ "type": "Feature", "properties": { "name": "USP Kwanpit-bong", "name:en": null, "amenity": "hospital", "building": null, "healthcare": "hospital", "healthcare:speciality": null, "operator:type": null, "capacity:persons": null, "addr:full": null, "addr:city": null, "source": null, "name:fr": null, "osm_id": 8994509039, "osm_type": "nodes" }, "geometry": { "type": "Point", "coordinates": [ 0.381425, 10.9384767 ] } },
{ "type": "Feature", "properties": { "name": "USP Korbongou", "name:en": null, "amenity": "hospital", "building": null, "healthcare": "hospital", "healthcare:speciality": null, "operator:type": null, "capacity:persons": null, "addr:full": null, "addr:city": null, "source": null, "name:fr": null, "osm_id": 9087839962, "osm_type": "nodes" }, "geometry": { "type": "Point", "coordinates": [ 0.3087971, 10.9107879 ] } },
{ "type": "Feature", "properties": { "name": "CMS", "name:en": null, "amenity": "hospital", "building": null, "healthcare": null, "healthcare:speciality": null, "operator:type": null, "capacity:persons": null, "addr:full": null, "addr:city": null, "source": null, "name:fr": null, "osm_id": 12252458596, "osm_type": "nodes" }, "geometry": { "type": "Point", "coordinates": [ 0.7991784, 7.2751289 ] } },
{ "type": "Feature", "properties": { "name": "USP", "name:en": null, "amenity": "hospital", "building": null, "healthcare": null, "healthcare:speciality": null, "operator:type": null, "capacity:persons": null, "addr:full": null, "addr:city": null, "source": null, "name:fr": null, "osm_id": 12252486414, "osm_type": "nodes" }, "geometry": { "type": "Point", "coordinates": [ 0.7159455, 7.0752298 ] } },
{ "type": "Feature", "properties": { "name": null, "name:en": null, "amenity": "hospital", "building": null, "healthcare": null, "healthcare:speciality": null, "operator:type": null, "capacity:persons": null, "addr:full": null, "addr:city": null, "source": null, "name:fr": null, "osm_id": 12252445356, "osm_type": "nodes" }, "geometry": { "type": "Point", "coordinates": [ 1.136117, 8.1258267 ] } },
{ "type": "Feature", "properties": { "name": "Alafia Espoir", "name:en": null, "amenity": "clinic", "building": null, "healthcare": null, "healthcare:speciality": null, "operator:type": null, "capacity:persons": null, "addr:full": null, "addr:city": null, "source": null, "name:fr": null, "osm_id": 4829692036, "osm_type": "nodes" }, "geometry": { "type": "Point", "coordinates": [ 1.413831, 9.0132297 ] } },
{ "type": "Feature", "properties": { "name": "Pharmacie de tchodzo", "name:en": null, "amenity": "pharmacy", "building": null, "healthcare": null, "healthcare:speciality": null, "operator:type": null, "capacity:persons": null, "addr:full": null, "addr:city": null, "source": null, "name:fr": null, "osm_id": 10706542715, "osm_type": "nodes" }, "geometry": { "type": "Point", "coordinates": [ 1.1398475, 8.9869788 ] } },
{ "type": "Feature", "properties": { "name": "USP Tchamonga", "name:en": null, "amenity": "hospital", "building": null, "healthcare": null, "healthcare:speciality": null, "operator:type": null, "capacity:persons": null, "addr:full": null, "addr:city": null, "source": null, "name:fr": null, "osm_id": 9165161075, "osm_type": "nodes" }, "geometry": { "type": "Point", "coordinates": [ 0.7308933, 10.5617014 ] } },
{ "type": "Feature", "properties": { "name": "Cabinet Médical Saint Raphaël Archange", "name:en": null, "amenity": null, "building": null, "healthcare": "alternative", "healthcare:speciality": null, "operator:type": null, "capacity:persons": null, "addr:full": null, "addr:city": null, "source": null, "name:fr": null, "osm_id": 10781960475, "osm_type": "nodes" }, "geometry": { "type": "Point", "coordinates": [ 1.2015051, 6.2005737 ] } },
{ "type": "Feature", "properties": { "name": "Infirmerie Pancherie", "name:en": null, "amenity": null, "building": null, "healthcare": "clinic", "healthcare:speciality": null, "operator:type": null, "capacity:persons": null, "addr:full": null, "addr:city": null, "source": null, "name:fr": null, "osm_id": 7057808686, "osm_type": "nodes" }, "geometry": { "type": "Point", "coordinates": [ 0.7425311, 10.7044113 ] } },
{ "type": "Feature", "properties": { "name": "Station d'expérimentations agronomique de kovié", "name:en": null, "amenity": null, "building": null, "healthcare": "laboratory", "healthcare:speciality": null, "operator:type": null, "capacity:persons": null, "addr:full": null, "addr:city": null, "source": null, "name:fr": null, "osm_id": 9173364570, "osm_type": "nodes" }, "geometry": { "type": "Point", "coordinates": [ 1.0968904, 6.3571611 ] } },
{ "type": "Feature", "properties": { "name": "CAMEG - TOGO", "name:en": null, "amenity": "pharmacy", "building": null, "healthcare": null, "healthcare:speciality": null, "operator:type": null, "capacity:persons": null, "addr:full": null, "addr:city": null, "source": null, "name:fr": null, "osm_id": 5981135503, "osm_type": "nodes" }, "geometry": { "type": "Point", "coordinates": [ 0.6274569, 6.9138083 ] } },
{ "type": "Feature", "properties": { "name": "Dispensaire de Nyitoe", "name:en": null, "amenity": "hospital", "building": null, "healthcare": null, "healthcare:speciality": null, "operator:type": null, "capacity:persons": null, "addr:full": null, "addr:city": null, "source": null, "name:fr": null, "osm_id": 10564939822, "osm_type": "nodes" }, "geometry": { "type": "Point", "coordinates": [ 0.650374, 6.6603381 ] } },
{ "type": "Feature", "properties": { "name": "Pharmcie TAKOE", "name:en": null, "amenity": "pharmacy", "building": null, "healthcare": null, "healthcare:speciality": null, "operator:type": null, "capacity:persons": null, "addr:full": null, "addr:city": null, "source": null, "name:fr": null, "osm_id": 10568015391, "osm_type": "nodes" }, "geometry": { "type": "Point", "coordinates": [ 1.2085497, 6.2531159 ] } },
{ "type": "Feature", "properties": { "name": "clinique la bénédiction", "name:en": null, "amenity": "clinic", "building": null, "healthcare": null, "healthcare:speciality": null, "operator:type": null, "capacity:persons": null, "addr:full": null, "addr:city": null, "source": null, "name:fr": null, "osm_id": 10562377523, "osm_type": "nodes" }, "geometry": { "type": "Point", "coordinates": [ 1.1729541, 6.2619985 ] } },
{ "type": "Feature", "properties": { "name": "La Grâçe Divine", "name:en": null, "amenity": "clinic", "building": null, "healthcare": null, "healthcare:speciality": null, "operator:type": null, "capacity:persons": null, "addr:full": null, "addr:city": null, "source": null, "name:fr": null, "osm_id": 9135410393, "osm_type": "nodes" }, "geometry": { "type": "Point", "coordinates": [ 1.1457163, 6.2539478 ] } },
{ "type": "Feature", "properties": { "name": "Dépos de Pharmacopé", "name:en": null, "amenity": "pharmacy", "building": null, "healthcare": null, "healthcare:speciality": null, "operator:type": null, "capacity:persons": null, "addr:full": null, "addr:city": null, "source": null, "name:fr": null, "osm_id": 9135427549, "osm_type": "nodes" }, "geometry": { "type": "Point", "coordinates": [ 1.1436644, 6.2554089 ] } },
{ "type": "Feature", "properties": { "name": "CHP Notsé", "name:en": null, "amenity": "clinic", "building": null, "healthcare": "clinic", "healthcare:speciality": null, "operator:type": null, "capacity:persons": null, "addr:full": null, "addr:city": null, "source": null, "name:fr": null, "osm_id": 9120931046, "osm_type": "nodes" }, "geometry": { "type": "Point", "coordinates": [ 1.1728521, 6.9511308 ] } },
{ "type": "Feature", "properties": { "name": "Clinique Ste Marie Reine", "name:en": null, "amenity": "clinic", "building": null, "healthcare": null, "healthcare:speciality": null, "operator:type": null, "capacity:persons": null, "addr:full": null, "addr:city": null, "source": null, "name:fr": null, "osm_id": 11360616930, "osm_type": "nodes" }, "geometry": { "type": "Point", "coordinates": [ 1.2078532, 6.1342907 ] } },
{ "type": "Feature", "properties": { "name": "Labo les adjointes", "name:en": null, "amenity": "dentist", "building": null, "healthcare": null, "healthcare:speciality": null, "operator:type": null, "capacity:persons": null, "addr:full": null, "addr:city": null, "source": null, "name:fr": null, "osm_id": 11360595445, "osm_type": "nodes" }, "geometry": { "type": "Point", "coordinates": [ 1.2075402, 6.1323324 ] } },
{ "type": "Feature", "properties": { "name": "CABINET DENTAIRE \"ÉCLAT\"", "name:en": null, "amenity": "clinic", "building": null, "healthcare": null, "healthcare:speciality": null, "operator:type": null, "capacity:persons": null, "addr:full": null, "addr:city": null, "source": null, "name:fr": null, "osm_id": 11360014698, "osm_type": "nodes" }, "geometry": { "type": "Point", "coordinates": [ 1.2119419, 6.1298754 ] } },
{ "type": "Feature", "properties": { "name": "Cabinet médical Emmanuel", "name:en": null, "amenity": "clinic", "building": null, "healthcare": null, "healthcare:speciality": null, "operator:type": null, "capacity:persons": null, "addr:full": null, "addr:city": null, "source": null, "name:fr": null, "osm_id": 11359892278, "osm_type": "nodes" }, "geometry": { "type": "Point", "coordinates": [ 1.2036156, 6.1276841 ] } },
{ "type": "Feature", "properties": { "name": "Clinique mont carmel", "name:en": null, "amenity": "clinic", "building": null, "healthcare": null, "healthcare:speciality": null, "operator:type": null, "capacity:persons": null, "addr:full": null, "addr:city": null, "source": null, "name:fr": null, "osm_id": 11359954805, "osm_type": "nodes" }, "geometry": { "type": "Point", "coordinates": [ 1.2053522, 6.1318572 ] } },
{ "type": "Feature", "properties": { "name": "CMS Association un jour nouveau", "name:en": null, "amenity": "hospital", "building": null, "healthcare": null, "healthcare:speciality": null, "operator:type": null, "capacity:persons": null, "addr:full": null, "addr:city": null, "source": null, "name:fr": null, "osm_id": 9053732024, "osm_type": "nodes" }, "geometry": { "type": "Point", "coordinates": [ 1.0159839, 8.6555051 ] } },
{ "type": "Feature", "properties": { "name": "Centre Médico-Social Sainte-Elizabeth de Hongrie", "name:en": null, "amenity": "pharmacy", "building": null, "healthcare": null, "healthcare:speciality": null, "operator:type": null, "capacity:persons": null, "addr:full": null, "addr:city": "Boloumondji", "source": null, "name:fr": null, "osm_id": 4740602032, "osm_type": "nodes" }, "geometry": { "type": "Point", "coordinates": [ 1.2039912, 6.4213608 ] } },
{ "type": "Feature", "properties": { "name": "USP Tami", "name:en": null, "amenity": "hospital", "building": null, "healthcare": null, "healthcare:speciality": null, "operator:type": null, "capacity:persons": null, "addr:full": null, "addr:city": null, "source": null, "name:fr": null, "osm_id": 9070360356, "osm_type": "nodes" }, "geometry": { "type": "Point", "coordinates": [ 0.0431992, 10.8643777 ] } },
{ "type": "Feature", "properties": { "name": "USP Bougou", "name:en": null, "amenity": "hospital", "building": null, "healthcare": null, "healthcare:speciality": null, "operator:type": null, "capacity:persons": null, "addr:full": null, "addr:city": null, "source": null, "name:fr": null, "osm_id": 9062017602, "osm_type": "nodes" }, "geometry": { "type": "Point", "coordinates": [ 0.2579107, 10.9899144 ] } },
{ "type": "Feature", "properties": { "name": "USP Tanikagou", "name:en": null, "amenity": "hospital", "building": null, "healthcare": null, "healthcare:speciality": null, "operator:type": null, "capacity:persons": null, "addr:full": null, "addr:city": null, "source": null, "name:fr": null, "osm_id": 9059387094, "osm_type": "nodes" }, "geometry": { "type": "Point", "coordinates": [ 0.1913581, 10.9643027 ] } },
{ "type": "Feature", "properties": { "name": null, "name:en": null, "amenity": "hospital", "building": null, "healthcare": null, "healthcare:speciality": null, "operator:type": null, "capacity:persons": null, "addr:full": null, "addr:city": null, "source": null, "name:fr": null, "osm_id": 9053482641, "osm_type": "nodes" }, "geometry": { "type": "Point", "coordinates": [ 0.751335, 6.828802 ] } },
{ "type": "Feature", "properties": { "name": null, "name:en": null, "amenity": "pharmacy", "building": null, "healthcare": null, "healthcare:speciality": null, "operator:type": null, "capacity:persons": null, "addr:full": null, "addr:city": null, "source": null, "name:fr": null, "osm_id": 9053482647, "osm_type": "nodes" }, "geometry": { "type": "Point", "coordinates": [ 0.7697149, 6.8888436 ] } },
{ "type": "Feature", "properties": { "name": null, "name:en": null, "amenity": "hospital", "building": null, "healthcare": null, "healthcare:speciality": null, "operator:type": null, "capacity:persons": null, "addr:full": null, "addr:city": null, "source": null, "name:fr": null, "osm_id": 9053559724, "osm_type": "nodes" }, "geometry": { "type": "Point", "coordinates": [ 0.7575376, 6.7487201 ] } },
{ "type": "Feature", "properties": { "name": null, "name:en": null, "amenity": "hospital", "building": null, "healthcare": null, "healthcare:speciality": null, "operator:type": null, "capacity:persons": null, "addr:full": null, "addr:city": null, "source": null, "name:fr": null, "osm_id": 9053455705, "osm_type": "nodes" }, "geometry": { "type": "Point", "coordinates": [ 0.7250769, 6.880622 ] } },
{ "type": "Feature", "properties": { "name": "Dispensaire", "name:en": null, "amenity": "hospital", "building": null, "healthcare": null, "healthcare:speciality": null, "operator:type": null, "capacity:persons": null, "addr:full": null, "addr:city": null, "source": null, "name:fr": null, "osm_id": 8872015393, "osm_type": "nodes" }, "geometry": { "type": "Point", "coordinates": [ 1.1126767, 6.4033229 ] } },
{ "type": "Feature", "properties": { "name": "Secours médical santé pour tous", "name:en": null, "amenity": "clinic", "building": null, "healthcare": null, "healthcare:speciality": null, "operator:type": null, "capacity:persons": null, "addr:full": null, "addr:city": null, "source": null, "name:fr": null, "osm_id": 7287888774, "osm_type": "nodes" }, "geometry": { "type": "Point", "coordinates": [ 1.1715725, 6.1777028 ] } },
{ "type": "Feature", "properties": { "name": "Pharmacie Maëlys", "name:en": null, "amenity": "pharmacy", "building": null, "healthcare": null, "healthcare:speciality": null, "operator:type": null, "capacity:persons": null, "addr:full": null, "addr:city": null, "source": null, "name:fr": null, "osm_id": 5615940216, "osm_type": "nodes" }, "geometry": { "type": "Point", "coordinates": [ 1.2754774, 6.1679518 ] } },
{ "type": "Feature", "properties": { "name": "Clinique Bel Air", "name:en": null, "amenity": "clinic", "building": null, "healthcare": null, "healthcare:speciality": null, "operator:type": null, "capacity:persons": null, "addr:full": null, "addr:city": null, "source": null, "name:fr": null, "osm_id": 9760423218, "osm_type": "nodes" }, "geometry": { "type": "Point", "coordinates": [ 1.2416237, 6.1330254 ] } },
{ "type": "Feature", "properties": { "name": null, "name:en": null, "amenity": "clinic", "building": null, "healthcare": null, "healthcare:speciality": null, "operator:type": null, "capacity:persons": null, "addr:full": null, "addr:city": null, "source": null, "name:fr": null, "osm_id": 10293745341, "osm_type": "nodes" }, "geometry": { "type": "Point", "coordinates": [ 1.131915, 6.2913792 ] } },
{ "type": "Feature", "properties": { "name": "Case de santé", "name:en": null, "amenity": "hospital", "building": null, "healthcare": null, "healthcare:speciality": null, "operator:type": null, "capacity:persons": null, "addr:full": null, "addr:city": null, "source": null, "name:fr": null, "osm_id": 9053199519, "osm_type": "nodes" }, "geometry": { "type": "Point", "coordinates": [ 0.9802669, 6.4650754 ] } },
{ "type": "Feature", "properties": { "name": "USP ZOGBEPIME", "name:en": null, "amenity": "hospital", "building": null, "healthcare": null, "healthcare:speciality": null, "operator:type": null, "capacity:persons": null, "addr:full": null, "addr:city": null, "source": null, "name:fr": null, "osm_id": 9053199527, "osm_type": "nodes" }, "geometry": { "type": "Point", "coordinates": [ 0.9810823, 6.4463191 ] } },
{ "type": "Feature", "properties": { "name": "Pharmacie Notre-Dame", "name:en": null, "amenity": "pharmacy", "building": null, "healthcare": null, "healthcare:speciality": null, "operator:type": null, "capacity:persons": null, "addr:full": null, "addr:city": null, "source": null, "name:fr": null, "osm_id": 5198000481, "osm_type": "nodes" }, "geometry": { "type": "Point", "coordinates": [ 1.2471451, 6.1846287 ] } },
{ "type": "Feature", "properties": { "name": "Clinique Sainte Cécile", "name:en": null, "amenity": "clinic", "building": null, "healthcare": null, "healthcare:speciality": null, "operator:type": null, "capacity:persons": null, "addr:full": null, "addr:city": null, "source": null, "name:fr": null, "osm_id": 5611676435, "osm_type": "nodes" }, "geometry": { "type": "Point", "coordinates": [ 1.1686299, 6.1770069 ] } },
{ "type": "Feature", "properties": { "name": "Ning Hong", "name:en": null, "amenity": "clinic", "building": null, "healthcare": null, "healthcare:speciality": null, "operator:type": null, "capacity:persons": null, "addr:full": null, "addr:city": null, "source": null, "name:fr": null, "osm_id": 5426220230, "osm_type": "nodes" }, "geometry": { "type": "Point", "coordinates": [ 1.2652116, 6.1892986 ] } },
{ "type": "Feature", "properties": { "name": null, "name:en": null, "amenity": "clinic", "building": null, "healthcare": null, "healthcare:speciality": null, "operator:type": null, "capacity:persons": null, "addr:full": null, "addr:city": null, "source": null, "name:fr": null, "osm_id": 10293745368, "osm_type": "nodes" }, "geometry": { "type": "Point", "coordinates": [ 1.1297196, 6.2848754 ] } },
{ "type": "Feature", "properties": { "name": null, "name:en": null, "amenity": "clinic", "building": null, "healthcare": null, "healthcare:speciality": null, "operator:type": null, "capacity:persons": null, "addr:full": null, "addr:city": null, "source": null, "name:fr": null, "osm_id": 10293745377, "osm_type": "nodes" }, "geometry": { "type": "Point", "coordinates": [ 1.1302923, 6.2839689 ] } },
{ "type": "Feature", "properties": { "name": null, "name:en": null, "amenity": "clinic", "building": null, "healthcare": null, "healthcare:speciality": null, "operator:type": null, "capacity:persons": null, "addr:full": null, "addr:city": null, "source": null, "name:fr": null, "osm_id": 10293745444, "osm_type": "nodes" }, "geometry": { "type": "Point", "coordinates": [ 1.1254173, 6.2913846 ] } },
{ "type": "Feature", "properties": { "name": "Pharmacie BAKOE", "name:en": null, "amenity": "pharmacy", "building": null, "healthcare": null, "healthcare:speciality": null, "operator:type": null, "capacity:persons": null, "addr:full": null, "addr:city": null, "source": "Bing;Survey", "name:fr": null, "osm_id": 10291301670, "osm_type": "nodes" }, "geometry": { "type": "Point", "coordinates": [ 1.141689, 6.2853899 ] } },
{ "type": "Feature", "properties": { "name": "CMS Magnificat", "name:en": null, "amenity": "clinic", "building": null, "healthcare": null, "healthcare:speciality": null, "operator:type": null, "capacity:persons": null, "addr:full": null, "addr:city": null, "source": null, "name:fr": null, "osm_id": 10291301687, "osm_type": "nodes" }, "geometry": { "type": "Point", "coordinates": [ 1.1239542, 6.2856072 ] } },
{ "type": "Feature", "properties": { "name": null, "name:en": null, "amenity": "clinic", "building": null, "healthcare": null, "healthcare:speciality": null, "operator:type": null, "capacity:persons": null, "addr:full": null, "addr:city": null, "source": null, "name:fr": null, "osm_id": 10290127255, "osm_type": "nodes" }, "geometry": { "type": "Point", "coordinates": [ 1.1499676, 6.3560617 ] } },
{ "type": "Feature", "properties": { "name": "CMS Ste Marie Madeleine", "name:en": null, "amenity": "hospital", "building": null, "healthcare": "hospital", "healthcare:speciality": null, "operator:type": null, "capacity:persons": null, "addr:full": null, "addr:city": null, "source": null, "name:fr": null, "osm_id": 5834851637, "osm_type": "nodes" }, "geometry": { "type": "Point", "coordinates": [ 1.2055473, 6.1703705 ] } },
{ "type": "Feature", "properties": { "name": "Saint Augustin", "name:en": null, "amenity": "clinic", "building": null, "healthcare": "clinic", "healthcare:speciality": null, "operator:type": null, "capacity:persons": null, "addr:full": null, "addr:city": null, "source": null, "name:fr": null, "osm_id": 4278275885, "osm_type": "nodes" }, "geometry": { "type": "Point", "coordinates": [ 1.2294827, 6.1379976 ] } },
{ "type": "Feature", "properties": { "name": "Pharmacie de la Nation", "name:en": null, "amenity": "pharmacy", "building": null, "healthcare": null, "healthcare:speciality": null, "operator:type": null, "capacity:persons": null, "addr:full": null, "addr:city": null, "source": "survey", "name:fr": null, "osm_id": 2559806823, "osm_type": "nodes" }, "geometry": { "type": "Point", "coordinates": [ 1.1910253, 6.1922583 ] } },
{ "type": "Feature", "properties": { "name": "PAHARMACIE HEDRANAWOE", "name:en": null, "amenity": "pharmacy", "building": null, "healthcare": null, "healthcare:speciality": null, "operator:type": null, "capacity:persons": null, "addr:full": null, "addr:city": null, "source": "bing;survey", "name:fr": null, "osm_id": 2616937305, "osm_type": "nodes" }, "geometry": { "type": "Point", "coordinates": [ 1.2387931, 6.1797097 ] } },
{ "type": "Feature", "properties": { "name": "Dispensaire de Sewove", "name:en": null, "amenity": "hospital", "building": null, "healthcare": null, "healthcare:speciality": null, "operator:type": null, "capacity:persons": null, "addr:full": null, "addr:city": null, "source": null, "name:fr": null, "osm_id": 10284808771, "osm_type": "nodes" }, "geometry": { "type": "Point", "coordinates": [ 1.2658647, 6.2888104 ] } },
{ "type": "Feature", "properties": { "name": "Clinique Espérance", "name:en": null, "amenity": "clinic", "building": null, "healthcare": null, "healthcare:speciality": null, "operator:type": "private", "capacity:persons": null, "addr:full": null, "addr:city": null, "source": "Bing and survey", "name:fr": null, "osm_id": 2619760944, "osm_type": "nodes" }, "geometry": { "type": "Point", "coordinates": [ 1.2411546, 6.1865447 ] } },
{ "type": "Feature", "properties": { "name": null, "name:en": null, "amenity": null, "building": null, "healthcare": "psychotherapist", "healthcare:speciality": null, "operator:type": null, "capacity:persons": null, "addr:full": null, "addr:city": null, "source": null, "name:fr": null, "osm_id": 11359925262, "osm_type": "nodes" }, "geometry": { "type": "Point", "coordinates": [ 1.2070596, 6.1220831 ] } },
{ "type": "Feature", "properties": { "name": "Maternité du CMS NYEKONAPKOÈ", "name:en": null, "amenity": null, "building": null, "healthcare": "yes", "healthcare:speciality": null, "operator:type": null, "capacity:persons": null, "addr:full": null, "addr:city": null, "source": null, "name:fr": null, "osm_id": 11359935425, "osm_type": "nodes" }, "geometry": { "type": "Point", "coordinates": [ 1.2007398, 6.128833 ] } },
{ "type": "Feature", "properties": { "name": "BGL SYSMET ÉQUIPEMENTS MÉDICAL", "name:en": null, "amenity": null, "building": null, "healthcare": "laboratory", "healthcare:speciality": null, "operator:type": null, "capacity:persons": null, "addr:full": null, "addr:city": null, "source": null, "name:fr": null, "osm_id": 11359742355, "osm_type": "nodes" }, "geometry": { "type": "Point", "coordinates": [ 1.2086637, 6.126769 ] } },
{ "type": "Feature", "properties": { "name": "Grâce Yin APTM - Togo", "name:en": null, "amenity": null, "building": null, "healthcare": "yes", "healthcare:speciality": null, "operator:type": null, "capacity:persons": null, "addr:full": null, "addr:city": null, "source": null, "name:fr": null, "osm_id": 9085127928, "osm_type": "nodes" }, "geometry": { "type": "Point", "coordinates": [ 1.1117301, 6.3375767 ] } },
{ "type": "Feature", "properties": { "name": "Dispensaire", "name:en": null, "amenity": "hospital", "building": null, "healthcare": null, "healthcare:speciality": null, "operator:type": null, "capacity:persons": null, "addr:full": null, "addr:city": null, "source": null, "name:fr": null, "osm_id": 8631441824, "osm_type": "nodes" }, "geometry": { "type": "Point", "coordinates": [ 0.7798228, 6.8654273 ] } },
{ "type": "Feature", "properties": { "name": "Pharmacie de l'amitié", "name:en": null, "amenity": "pharmacy", "building": null, "healthcare": null, "healthcare:speciality": null, "operator:type": null, "capacity:persons": null, "addr:full": null, "addr:city": null, "source": null, "name:fr": "Pharmacie de l'amitié", "osm_id": 5244447222, "osm_type": "nodes" }, "geometry": { "type": "Point", "coordinates": [ 1.2228235, 6.1538483 ] } },
{ "type": "Feature", "properties": { "name": "Laboratoire LOCOH-DONOU", "name:en": null, "amenity": "clinic", "building": null, "healthcare": null, "healthcare:speciality": null, "operator:type": null, "capacity:persons": null, "addr:full": null, "addr:city": null, "source": "Survey", "name:fr": null, "osm_id": 5185751149, "osm_type": "nodes" }, "geometry": { "type": "Point", "coordinates": [ 1.2113563, 6.134089 ] } },
{ "type": "Feature", "properties": { "name": "Gynicologie Dr Mawuli TEKOU", "name:en": null, "amenity": "clinic", "building": null, "healthcare": null, "healthcare:speciality": null, "operator:type": null, "capacity:persons": null, "addr:full": null, "addr:city": null, "source": null, "name:fr": null, "osm_id": 11151936444, "osm_type": "nodes" }, "geometry": { "type": "Point", "coordinates": [ 1.2341378, 6.1645845 ] } },
{ "type": "Feature", "properties": { "name": "PHARMACOPE", "name:en": null, "amenity": "pharmacy", "building": null, "healthcare": null, "healthcare:speciality": null, "operator:type": null, "capacity:persons": null, "addr:full": null, "addr:city": null, "source": "Bing;survey", "name:fr": null, "osm_id": 3003189592, "osm_type": "nodes" }, "geometry": { "type": "Point", "coordinates": [ 1.611116, 6.2394862 ] } },
{ "type": "Feature", "properties": { "name": "Centre Hospitalier d'Aneho Adjido", "name:en": null, "amenity": "hospital", "building": null, "healthcare": null, "healthcare:speciality": null, "operator:type": null, "capacity:persons": null, "addr:full": null, "addr:city": null, "source": "bing;survey 2014", "name:fr": null, "osm_id": 2999860534, "osm_type": "nodes" }, "geometry": { "type": "Point", "coordinates": [ 1.6089395, 6.2368165 ] } },
{ "type": "Feature", "properties": { "name": "Centre Médico-Social Lanmessin", "name:en": null, "amenity": "clinic", "building": null, "healthcare": null, "healthcare:speciality": null, "operator:type": null, "capacity:persons": null, "addr:full": null, "addr:city": null, "source": null, "name:fr": null, "osm_id": 2454830092, "osm_type": "nodes" }, "geometry": { "type": "Point", "coordinates": [ 1.5991677, 6.2285154 ] } },